{"type":"FeatureCollection", "features": [
  {"type": "Feature",
  "geometry": {"type": "symbol", "coordinates": [92.819, 9.171]},
  "properties": {"Block_Name": "Car Nicobar",
   "Dist_Name": "Nicobar",
   "State_Name": "Andaman And Nicobar Islands"}},
 {"type": "Feature",
  "geometry": {"type": "symbol", "coordinates": [93.893, 7.537]},
  "properties": {"Block_Name": "Nancowrie",
   "Dist_Name": "Nicobar",
   "State_Name": "Andaman And Nicobar Islands"}},
 {"type": "Feature",
  "geometry": {"type": "symbol", "coordinates": [83.214, 17.695]},
  "properties": {"Block_Name": "Gangavaram",
   "Dist_Name": "Alluri Sitharama Raju",
   "State_Name": "Andhra Pradesh"}},
 {"type": "Feature",
  "geometry": {"type": "symbol", "coordinates": [81.886, 18.999]},
  "properties": {"Block_Name": "Maredumilli",
   "Dist_Name": "Alluri Sitharama Raju",
   "State_Name": "Andhra Pradesh"}},
 {"type": "Feature",
  "geometry": {"type": "symbol", "coordinates": [81.761, 17.431]},
  "properties": {"Block_Name": "Y. Ramavaram",
   "Dist_Name": "Alluri Sitharama Raju",
   "State_Name": "Andhra Pradesh"}},
 {"type": "Feature",
  "geometry": {"type": "symbol", "coordinates": [79.986, 14.412]},
  "properties": {"Block_Name": "Kodur",
   "Dist_Name": "Annamayya",
   "State_Name": "Andhra Pradesh"}},
 {"type": "Feature",
  "geometry": {"type": "symbol", "coordinates": [79.877, 14.232]},
  "properties": {"Block_Name": "Kurabalakota",
   "Dist_Name": "Annamayya",
   "State_Name": "Andhra Pradesh"}},
 {"type": "Feature",
  "geometry": {"type": "symbol", "coordinates": [79.999, 14.045]},
  "properties": {"Block_Name": "Lakkireddipalle",
   "Dist_Name": "Annamayya",
   "State_Name": "Andhra Pradesh"}},
 {"type": "Feature",
  "geometry": {"type": "symbol", "coordinates": [78.276, 13.862]},
  "properties": {"Block_Name": "Chippagiri",
   "Dist_Name": "Kurnool",
   "State_Name": "Andhra Pradesh"}},
 {"type": "Feature",
  "geometry": {"type": "symbol", "coordinates": [78.529, 13.79]},
  "properties": {"Block_Name": "Holagunda",
   "Dist_Name": "Kurnool",
   "State_Name": "Andhra Pradesh"}},
 {"type": "Feature",
  "geometry": {"type": "symbol", "coordinates": [77.579, 14.529]},
  "properties": {"Block_Name": "Maddikera (East)",
   "Dist_Name": "Kurnool",
   "State_Name": "Andhra Pradesh"}},
 {"type": "Feature",
  "geometry": {"type": "symbol", "coordinates": [80.562, 16.974]},
  "properties": {"Block_Name": "Ibrahimpatnam",
   "Dist_Name": "NTR",
   "State_Name": "Andhra Pradesh"}},
 {"type": "Feature",
  "geometry": {"type": "symbol", "coordinates": [81.13, 16.152]},
  "properties": {"Block_Name": "Penuganchiprolu",
   "Dist_Name": "NTR",
   "State_Name": "Andhra Pradesh"}},
 {"type": "Feature",
  "geometry": {"type": "symbol", "coordinates": [80.026, 15.432]},
  "properties": {"Block_Name": "Bhamini",
   "Dist_Name": "Parvathipuram Manyam",
   "State_Name": "Andhra Pradesh"}},
 {"type": "Feature",
  "geometry": {"type": "symbol", "coordinates": [79.916, 15.693]},
  "properties": {"Block_Name": "Yerragondapalem",
   "Dist_Name": "Prakasam",
   "State_Name": "Andhra Pradesh"}},
 {"type": "Feature",
  "geometry": {"type": "symbol", "coordinates": [78.59, 14.422]},
  "properties": {"Block_Name": "Chintakomma Dinne",
   "Dist_Name": "Y.S.R.",
   "State_Name": "Andhra Pradesh"}},
 {"type": "Feature",
  "geometry": {"type": "symbol", "coordinates": [78.38, 14.85]},
  "properties": {"Block_Name": "Jammalamadugu",
   "Dist_Name": "Y.S.R.",
   "State_Name": "Andhra Pradesh"}},
 {"type": "Feature",
  "geometry": {"type": "symbol", "coordinates": [78.963, 16.133]},
  "properties": {"Block_Name": "Tali",
   "Dist_Name": "Kra Daadi",
   "State_Name": "Arunachal Pradesh"}},
 {"type": "Feature",
  "geometry": {"type": "symbol", "coordinates": [95.385, 16.583]},
  "properties": {"Block_Name": "Pongchau",
   "Dist_Name": "Longding",
   "State_Name": "Arunachal Pradesh"}},
 {"type": "Feature",
  "geometry": {"type": "symbol", "coordinates": [96.23, 27.888]},
  "properties": {"Block_Name": "Chowkham",
   "Dist_Name": "Namsai",
   "State_Name": "Arunachal Pradesh"}},
 {"type": "Feature",
  "geometry": {"type": "symbol", "coordinates": [91.426, 26.547]},
  "properties": {"Block_Name": "Tamulpur",
   "Dist_Name": "Baksa",
   "State_Name": "Assam"}},
 {"type": "Feature",
  "geometry": {"type": "symbol", "coordinates": [92.901, 25.875]},
  "properties": {"Block_Name": "Mandia",
   "Dist_Name": "Barpeta",
   "State_Name": "Assam"}},
 {"type": "Feature",
  "geometry": {"type": "symbol", "coordinates": [93.112, 25.044]},
  "properties": {"Block_Name": "Lakhipur",
   "Dist_Name": "Cachar",
   "State_Name": "Assam"}},
 {"type": "Feature",
  "geometry": {"type": "symbol", "coordinates": [92.04, 26.462]},
  "properties": {"Block_Name": "Pub-Mangaldai",
   "Dist_Name": "Darrang",
   "State_Name": "Assam"}},
 {"type": "Feature",
  "geometry": {"type": "symbol", "coordinates": [95.248, 27.329]},
  "properties": {"Block_Name": "Murgkongselek",
   "Dist_Name": "Dhemaji",
   "State_Name": "Assam"}},
 {"type": "Feature",
  "geometry": {"type": "symbol", "coordinates": [90.818, 26.871]},
  "properties": {"Block_Name": "Birshing-Jarua",
   "Dist_Name": "Dhubri",
   "State_Name": "Assam"}},
 {"type": "Feature",
  "geometry": {"type": "symbol", "coordinates": [95.155, 28.33]},
  "properties": {"Block_Name": "Diyang Valley",
   "Dist_Name": "Dima Hasao",
   "State_Name": "Assam"}},
 {"type": "Feature",
  "geometry": {"type": "symbol", "coordinates": [95.318, 28.478]},
  "properties": {"Block_Name": "Diyungbra",
   "Dist_Name": "Dima Hasao",
   "State_Name": "Assam"}},
 {"type": "Feature",
  "geometry": {"type": "symbol", "coordinates": [93.958, 25.043]},
  "properties": {"Block_Name": "Jatinga Valley",
   "Dist_Name": "Dima Hasao",
   "State_Name": "Assam"}},
 {"type": "Feature",
  "geometry": {"type": "symbol", "coordinates": [92.366, 24.468]},
  "properties": {"Block_Name": "New Sangbar",
   "Dist_Name": "Dima Hasao",
   "State_Name": "Assam"}},
 {"type": "Feature",
  "geometry": {"type": "symbol", "coordinates": [93.004555, 24.792473]},
  "properties": {"Block_Name": "Lakhipur",
   "Dist_Name": "Goalpara",
   "State_Name": "Assam"}},
 {"type": "Feature",
  "geometry": {"type": "symbol", "coordinates": [92.564, 24.378]},
  "properties": {"Block_Name": "South Hailakandi",
   "Dist_Name": "Hailakandi",
   "State_Name": "Assam"}},
 {"type": "Feature",
  "geometry": {"type": "symbol", "coordinates": [94.319, 27.213]},
  "properties": {"Block_Name": "Nilip",
   "Dist_Name": "Karbi Anglong",
   "State_Name": "Assam"}},
 {"type": "Feature",
  "geometry": {"type": "symbol", "coordinates": [92.35, 24.883]},
  "properties": {"Block_Name": "Rongmongwe",
   "Dist_Name": "Karbi Anglong",
   "State_Name": "Assam"}},
 {"type": "Feature",
  "geometry": {"type": "symbol", "coordinates": [92.116, 25.472]},
  "properties": {"Block_Name": "Samelangso",
   "Dist_Name": "Karbi Anglong",
   "State_Name": "Assam"}},
 {"type": "Feature",
  "geometry": {"type": "symbol", "coordinates": [89.914, 26.882]},
  "properties": {"Block_Name": "Fekamari",
   "Dist_Name": "SS Mankachar",
   "State_Name": "Assam"}},
 {"type": "Feature",
  "geometry": {"type": "symbol", "coordinates": [92.712, 27.052]},
  "properties": {"Block_Name": "Bhergaon",
   "Dist_Name": "Udalguri",
   "State_Name": "Assam"}},
 {"type": "Feature",
  "geometry": {"type": "symbol", "coordinates": [90.597, 26.827]},
  "properties": {"Block_Name": "Amri",
   "Dist_Name": "West Karbi Anglong",
   "State_Name": "Assam"}},
 {"type": "Feature",
  "geometry": {"type": "symbol", "coordinates": [93.866, 24.58]},
  "properties": {"Block_Name": "Chinthong",
   "Dist_Name": "West Karbi Anglong",
   "State_Name": "Assam"}},
 {"type": "Feature",
  "geometry": {"type": "symbol", "coordinates": [92.657, 23.191]},
  "properties": {"Block_Name": "Socheng",
   "Dist_Name": "West Karbi Anglong",
   "State_Name": "Assam"}},
 {"type": "Feature",
  "geometry": {"type": "symbol", "coordinates": [90.945, 25.27]},
  "properties": {"Block_Name": "Palasi",
   "Dist_Name": "Araria",
   "State_Name": "Bihar"}},
 {"type": "Feature",
  "geometry": {"type": "symbol", "coordinates": [93.187, 27.45]},
  "properties": {"Block_Name": "Deo",
   "Dist_Name": "Aurangabad",
   "State_Name": "Bihar"}},
 {"type": "Feature",
  "geometry": {"type": "symbol", "coordinates": [94.491, 27.935]},
  "properties": {"Block_Name": "Kutumba",
   "Dist_Name": "Aurangabad",
   "State_Name": "Bihar"}},
 {"type": "Feature",
  "geometry": {"type": "symbol", "coordinates": [94.34, 26.067]},
  "properties": {"Block_Name": "Madanpur",
   "Dist_Name": "Aurangabad",
   "State_Name": "Bihar"}},
 {"type": "Feature",
  "geometry": {"type": "symbol", "coordinates": [94.591, 27.385]},
  "properties": {"Block_Name": "Nabinagar",
   "Dist_Name": "Aurangabad",
   "State_Name": "Bihar"}},
 {"type": "Feature",
  "geometry": {"type": "symbol", "coordinates": [91.217, 25.174]},
  "properties": {"Block_Name": "Chandan",
   "Dist_Name": "Banka",
   "State_Name": "Bihar"}},
 {"type": "Feature",
  "geometry": {"type": "symbol", "coordinates": [87.896, 25.171]},
  "properties": {"Block_Name": "Katoria",
   "Dist_Name": "Banka",
   "State_Name": "Bihar"}},
 {"type": "Feature",
  "geometry": {"type": "symbol", "coordinates": [87.802, 25.229]},
  "properties": {"Block_Name": "Shambhuganj",
   "Dist_Name": "Banka",
   "State_Name": "Bihar"}},
 {"type": "Feature",
  "geometry": {"type": "symbol", "coordinates": [84.497, 26.713]},
  "properties": {"Block_Name": "Bhagwanpur",
   "Dist_Name": "Begusarai",
   "State_Name": "Bihar"}},
 {"type": "Feature",
  "geometry": {"type": "symbol", "coordinates": [85.268, 25.483]},
  "properties": {"Block_Name": "Mansurchak",
   "Dist_Name": "Begusarai",
   "State_Name": "Bihar"}},
 {"type": "Feature",
  "geometry": {"type": "symbol", "coordinates": [86.363, 25.783]},
  "properties": {"Block_Name": "Samho Akha Kurha",
   "Dist_Name": "Begusarai",
   "State_Name": "Bihar"}},
 {"type": "Feature",
  "geometry": {"type": "symbol", "coordinates": [85.965, 25.467]},
  "properties": {"Block_Name": "Teghra",
   "Dist_Name": "Begusarai",
   "State_Name": "Bihar"}},
 {"type": "Feature",
  "geometry": {"type": "symbol", "coordinates": [84.389, 25.66]},
  "properties": {"Block_Name": "Jagdishpur",
   "Dist_Name": "Bhagalpur",
   "State_Name": "Bihar"}},
 {"type": "Feature",
  "geometry": {"type": "symbol", "coordinates": [87.051, 25.076]},
  "properties": {"Block_Name": "Pirpainti",
   "Dist_Name": "Bhagalpur",
   "State_Name": "Bihar"}},
 {"type": "Feature",
  "geometry": {"type": "symbol", "coordinates": [86.268, 25.274]},
  "properties": {"Block_Name": "Sabour",
   "Dist_Name": "Bhagalpur",
   "State_Name": "Bihar"}},
 {"type": "Feature",
  "geometry": {"type": "symbol", "coordinates": [85.573, 25.569]},
  "properties": {"Block_Name": "Sonhaula",
   "Dist_Name": "Bhagalpur",
   "State_Name": "Bihar"}},
 {"type": "Feature",
  "geometry": {"type": "symbol", "coordinates": [87.206, 25.255]},
  "properties": {"Block_Name": "Sultanganj",
   "Dist_Name": "Bhagalpur",
   "State_Name": "Bihar"}},
 {"type": "Feature",
  "geometry": {"type": "symbol", "coordinates": [85.681, 25.184]},
  "properties": {"Block_Name": "Behea",
   "Dist_Name": "Bhojpur",
   "State_Name": "Bihar"}},
 {"type": "Feature",
  "geometry": {"type": "symbol", "coordinates": [86.302, 25.157]},
  "properties": {"Block_Name": "Sandesh",
   "Dist_Name": "Bhojpur",
   "State_Name": "Bihar"}},
 {"type": "Feature",
  "geometry": {"type": "symbol", "coordinates": [84.002, 24.787]},
  "properties": {"Block_Name": "Shahpur",
   "Dist_Name": "Bhojpur",
   "State_Name": "Bihar"}},
 {"type": "Feature",
  "geometry": {"type": "symbol", "coordinates": [85.933, 25.7]},
  "properties": {"Block_Name": "Brahmpur",
   "Dist_Name": "Buxar",
   "State_Name": "Bihar"}},
 {"type": "Feature",
  "geometry": {"type": "symbol", "coordinates": [85.198, 25.192]},
  "properties": {"Block_Name": "Chakki",
   "Dist_Name": "Buxar",
   "State_Name": "Bihar"}},
 {"type": "Feature",
  "geometry": {"type": "symbol", "coordinates": [85.301, 25.994]},
  "properties": {"Block_Name": "Fatehpur",
   "Dist_Name": "Gaya",
   "State_Name": "Bihar"}},
 {"type": "Feature",
  "geometry": {"type": "symbol", "coordinates": [84.486, 24.645]},
  "properties": {"Block_Name": "Imamganj",
   "Dist_Name": "Gaya",
   "State_Name": "Bihar"}},
 {"type": "Feature",
  "geometry": {"type": "symbol", "coordinates": [81.945, 25.286]},
  "properties": {"Block_Name": "Konch",
   "Dist_Name": "Gaya",
   "State_Name": "Bihar"}},
 {"type": "Feature",
  "geometry": {"type": "symbol", "coordinates": [85.38336, 24.8925]},
  "properties": {"Block_Name": "Wazirganj",
   "Dist_Name": "Gaya",
   "State_Name": "Bihar"}},
 {"type": "Feature",
  "geometry": {"type": "symbol", "coordinates": [84.695, 26.241]},
  "properties": {"Block_Name": "Uchkagaon",
   "Dist_Name": "Gopalganj",
   "State_Name": "Bihar"}},
 {"type": "Feature",
  "geometry": {"type": "symbol", "coordinates": [83.719, 25.88]},
  "properties": {"Block_Name": "Barhat",
   "Dist_Name": "Jamui",
   "State_Name": "Bihar"}},
 {"type": "Feature",
  "geometry": {"type": "symbol", "coordinates": [84.753, 25.789]},
  "properties": {"Block_Name": "Khaira",
   "Dist_Name": "Jamui",
   "State_Name": "Bihar"}},
 {"type": "Feature",
  "geometry": {"type": "symbol", "coordinates": [85.21, 26.281]},
  "properties": {"Block_Name": "Laxmipur",
   "Dist_Name": "Jamui",
   "State_Name": "Bihar"}},
 {"type": "Feature",
  "geometry": {"type": "symbol", "coordinates": [84.399, 24.591]},
  "properties": {"Block_Name": "Sono",
   "Dist_Name": "Jamui",
   "State_Name": "Bihar"}},
 {"type": "Feature",
  "geometry": {"type": "symbol", "coordinates": [84.641, 25.956]},
  "properties": {"Block_Name": "Bhagwanpur",
   "Dist_Name": "Kaimur (Bhabua)",
   "State_Name": "Bihar"}},
 {"type": "Feature",
  "geometry": {"type": "symbol", "coordinates": [84.144, 25.804]},
  "properties": {"Block_Name": "Chand",
   "Dist_Name": "Kaimur (Bhabua)",
   "State_Name": "Bihar"}},
 {"type": "Feature",
  "geometry": {"type": "symbol", "coordinates": [83.686, 24.669]},
  "properties": {"Block_Name": "Kudra",
   "Dist_Name": "Kaimur (Bhabua)",
   "State_Name": "Bihar"}},
 {"type": "Feature",
  "geometry": {"type": "symbol", "coordinates": [84.566, 24.65]},
  "properties": {"Block_Name": "Ramgarh",
   "Dist_Name": "Kaimur (Bhabua)",
   "State_Name": "Bihar"}},
 {"type": "Feature",
  "geometry": {"type": "symbol", "coordinates": [84.638, 24.616]},
  "properties": {"Block_Name": "Rampur",
   "Dist_Name": "Kaimur (Bhabua)",
   "State_Name": "Bihar"}},
 {"type": "Feature",
  "geometry": {"type": "symbol", "coordinates": [84.899, 24.6]},
  "properties": {"Block_Name": "Balrampur",
   "Dist_Name": "Katihar",
   "State_Name": "Bihar"}},
 {"type": "Feature",
  "geometry": {"type": "symbol", "coordinates": [87.333, 25.635]},
  "properties": {"Block_Name": "Kursela",
   "Dist_Name": "Katihar",
   "State_Name": "Bihar"}},
 {"type": "Feature",
  "geometry": {"type": "symbol", "coordinates": [87.618, 25.312]},
  "properties": {"Block_Name": "Manihari",
   "Dist_Name": "Katihar",
   "State_Name": "Bihar"}},
 {"type": "Feature",
  "geometry": {"type": "symbol", "coordinates": [87.564, 25.505]},
  "properties": {"Block_Name": "Parbatta",
   "Dist_Name": "Khagaria",
   "State_Name": "Bihar"}},
 {"type": "Feature",
  "geometry": {"type": "symbol", "coordinates": [87.432, 25.565]},
  "properties": {"Block_Name": "Surajgarha",
   "Dist_Name": "Lakhisarai",
   "State_Name": "Bihar"}},
 {"type": "Feature",
  "geometry": {"type": "symbol", "coordinates": [87.437, 25.884]},
  "properties": {"Block_Name": "Chausa",
   "Dist_Name": "Madhepura",
   "State_Name": "Bihar"}},
 {"type": "Feature",
  "geometry": {"type": "symbol", "coordinates": [87.429, 25.998]},
  "properties": {"Block_Name": "Bariyarpur",
   "Dist_Name": "Munger",
   "State_Name": "Bihar"}},
 {"type": "Feature",
  "geometry": {"type": "symbol", "coordinates": [87.484, 25.712]},
  "properties": {"Block_Name": "Dharhara",
   "Dist_Name": "Munger",
   "State_Name": "Bihar"}},
 {"type": "Feature",
  "geometry": {"type": "symbol", "coordinates": [86.5, 25.315]},
  "properties": {"Block_Name": "Jamalpur",
   "Dist_Name": "Munger",
   "State_Name": "Bihar"}},
 {"type": "Feature",
  "geometry": {"type": "symbol", "coordinates": [86.977, 25.268]},
  "properties": {"Block_Name": "Tarapur",
   "Dist_Name": "Munger",
   "State_Name": "Bihar"}},
 {"type": "Feature",
  "geometry": {"type": "symbol", "coordinates": [85.641, 26.163]},
  "properties": {"Block_Name": "Mushahari",
   "Dist_Name": "Muzaffarpur",
   "State_Name": "Bihar"}},
 {"type": "Feature",
  "geometry": {"type": "symbol", "coordinates": [85.212, 25.306]},
  "properties": {"Block_Name": "Kashichak",
   "Dist_Name": "Nawada",
   "State_Name": "Bihar"}},
 {"type": "Feature",
  "geometry": {"type": "symbol", "coordinates": [85.448, 25.495]},
  "properties": {"Block_Name": "Pakri Barawan",
   "Dist_Name": "Nawada",
   "State_Name": "Bihar"}},
 {"type": "Feature",
  "geometry": {"type": "symbol", "coordinates": [84.915, 25.31]},
  "properties": {"Block_Name": "Kalyanpur",
   "Dist_Name": "Purbi Champaran",
   "State_Name": "Bihar"}},
 {"type": "Feature",
  "geometry": {"type": "symbol", "coordinates": [85.524, 26.066]},
  "properties": {"Block_Name": "Kesaria",
   "Dist_Name": "Purbi Champaran",
   "State_Name": "Bihar"}},
 {"type": "Feature",
  "geometry": {"type": "symbol", "coordinates": [87.318, 26.06]},
  "properties": {"Block_Name": "Baisi",
   "Dist_Name": "Purnia",
   "State_Name": "Bihar"}},
 {"type": "Feature",
  "geometry": {"type": "symbol", "coordinates": [87.701, 25.095]},
  "properties": {"Block_Name": "Srinagar",
   "Dist_Name": "Purnia",
   "State_Name": "Bihar"}},
 {"type": "Feature",
  "geometry": {"type": "symbol", "coordinates": [84.027, 24.919]},
  "properties": {"Block_Name": "Tilouthu",
   "Dist_Name": "Rohtas",
   "State_Name": "Bihar"}},
 {"type": "Feature",
  "geometry": {"type": "symbol", "coordinates": [84.664, 25.511]},
  "properties": {"Block_Name": "Hasanpur",
   "Dist_Name": "Samastipur",
   "State_Name": "Bihar"}},
 {"type": "Feature",
  "geometry": {"type": "symbol", "coordinates": [84.545, 25.576]},
  "properties": {"Block_Name": "Khanpur",
   "Dist_Name": "Samastipur",
   "State_Name": "Bihar"}},
 {"type": "Feature",
  "geometry": {"type": "symbol", "coordinates": [84.828, 25.317]},
  "properties": {"Block_Name": "Sheikhopur Sarai",
   "Dist_Name": "Sheikhpura",
   "State_Name": "Bihar"}},
 {"type": "Feature",
  "geometry": {"type": "symbol", "coordinates": [87.322, 26.483]},
  "properties": {"Block_Name": "Bairgania",
   "Dist_Name": "Sitamarhi",
   "State_Name": "Bihar"}},
 {"type": "Feature",
  "geometry": {"type": "symbol", "coordinates": [85.581, 25.607]},
  "properties": {"Block_Name": "Andar",
   "Dist_Name": "Siwan",
   "State_Name": "Bihar"}},
 {"type": "Feature",
  "geometry": {"type": "symbol", "coordinates": [85.334, 25.221]},
  "properties": {"Block_Name": "Basantpur",
   "Dist_Name": "Supaul",
   "State_Name": "Bihar"}},
 {"type": "Feature",
  "geometry": {"type": "symbol", "coordinates": [84.283, 25.883]},
  "properties": {"Block_Name": "Lalganj",
   "Dist_Name": "Vaishali",
   "State_Name": "Bihar"}},
 {"type": "Feature",
  "geometry": {"type": "symbol", "coordinates": [85.914, 25.126]},
  "properties": {"Block_Name": "Shakargarh",
   "Dist_Name": "Balrampur",
   "State_Name": "Chhattisgarh"}},
 {"type": "Feature",
  "geometry": {"type": "symbol", "coordinates": [81.521, 19.524]},
  "properties": {"Block_Name": "Tokapal",
   "Dist_Name": "Bastar",
   "State_Name": "Chhattisgarh"}},
 {"type": "Feature",
  "geometry": {"type": "symbol", "coordinates": [81.843, 18.282]},
  "properties": {"Block_Name": "Usoor",
   "Dist_Name": "Bijapur",
   "State_Name": "Chhattisgarh"}},
 {"type": "Feature",
  "geometry": {"type": "symbol", "coordinates": [81.7, 18.351]},
  "properties": {"Block_Name": "Kuwakonda",
   "Dist_Name": "Dantewada",
   "State_Name": "Chhattisgarh"}},
 {"type": "Feature",
  "geometry": {"type": "symbol", "coordinates": [82.001, 20.63]},
  "properties": {"Block_Name": "Gariyaband",
   "Dist_Name": "Gariyaband",
   "State_Name": "Chhattisgarh"}},
 {"type": "Feature",
  "geometry": {"type": "symbol", "coordinates": [82.652, 22.712]},
  "properties": {"Block_Name": "Mainpur",
   "Dist_Name": "Gariyaband",
   "State_Name": "Chhattisgarh"}},
 {"type": "Feature",
  "geometry": {"type": "symbol", "coordinates": [81.673, 22.728]},
  "properties": {"Block_Name": "Gaurella-2",
   "Dist_Name": "Gaurella-Pendra-Marwahi",
   "State_Name": "Chhattisgarh"}},
 {"type": "Feature",
  "geometry": {"type": "symbol", "coordinates": [81.217, 22.715]},
  "properties": {"Block_Name": "Bodla",
   "Dist_Name": "Kabirdham",
   "State_Name": "Chhattisgarh"}},
 {"type": "Feature",
  "geometry": {"type": "symbol", "coordinates": [81.635, 21.656]},
  "properties": {"Block_Name": "Durgukondal",
   "Dist_Name": "Kanker",
   "State_Name": "Chhattisgarh"}},
 {"type": "Feature",
  "geometry": {"type": "symbol", "coordinates": [81.16, 22.875]},
  "properties": {"Block_Name": "Koilebeda",
   "Dist_Name": "Kanker",
   "State_Name": "Chhattisgarh"}},
 {"type": "Feature",
  "geometry": {"type": "symbol", "coordinates": [81.065, 22.977]},
  "properties": {"Block_Name": "Makdi",
   "Dist_Name": "Kondagaon",
   "State_Name": "Chhattisgarh"}},
 {"type": "Feature",
  "geometry": {"type": "symbol", "coordinates": [82.699, 22.342]},
  "properties": {"Block_Name": "Korba",
   "Dist_Name": "Korba",
   "State_Name": "Chhattisgarh"}},
 {"type": "Feature",
  "geometry": {"type": "symbol", "coordinates": [82.76, 22.587]},
  "properties": {"Block_Name": "Podi Uproda",
   "Dist_Name": "Korba",
   "State_Name": "Chhattisgarh"}},
 {"type": "Feature",
  "geometry": {"type": "symbol", "coordinates": [82.578, 23.255]},
  "properties": {"Block_Name": "Baikunthpur",
   "Dist_Name": "Korea",
   "State_Name": "Chhattisgarh"}},
 {"type": "Feature",
  "geometry": {"type": "symbol", "coordinates": [83.63, 21.204]},
  "properties": {"Block_Name": "Pithora",
   "Dist_Name": "Mahasamund",
   "State_Name": "Chhattisgarh"}},
 {"type": "Feature",
  "geometry": {"type": "symbol", "coordinates": [80.74, 18.156]},
  "properties": {"Block_Name": "A.Chowki (Td)",
   "Dist_Name": "Mohla-Manpur- A Chowki",
   "State_Name": "Chhattisgarh"}},
 {"type": "Feature",
  "geometry": {"type": "symbol", "coordinates": [78.641, 25.352]},
  "properties": {"Block_Name": "Orchha",
   "Dist_Name": "Narayanpur",
   "State_Name": "Chhattisgarh"}},
 {"type": "Feature",
  "geometry": {"type": "symbol", "coordinates": [81.114, 19.541]},
  "properties": {"Block_Name": "Konta",
   "Dist_Name": "Sukma",
   "State_Name": "Chhattisgarh"}},
 {"type": "Feature",
  "geometry": {"type": "symbol", "coordinates": [81.094, 18.856]},
  "properties": {"Block_Name": "Pratappur",
   "Dist_Name": "Surajpur",
   "State_Name": "Chhattisgarh"}},
 {"type": "Feature",
  "geometry": {"type": "symbol", "coordinates": [82.561, 22.964]},
  "properties": {"Block_Name": "Lakhanpur",
   "Dist_Name": "Surguja",
   "State_Name": "Chhattisgarh"}},
 {"type": "Feature",
  "geometry": {"type": "symbol", "coordinates": [73.016, 20.18]},
  "properties": {"Block_Name": "Dadra Nagar Haveli",
   "Dist_Name": "Dadra And Nagar Haveli",
   "State_Name": "Dadra & Nagar Haveli And Daman & Diu"}},
 {"type": "Feature",
  "geometry": {"type": "symbol", "coordinates": [72.836, 20.422]},
  "properties": {"Block_Name": "Daman",
   "Dist_Name": "Daman",
   "State_Name": "Dadra & Nagar Haveli And Daman & Diu"}},
 {"type": "Feature",
  "geometry": {"type": "symbol", "coordinates": [71.626, 24.397]},
  "properties": {"Block_Name": "Tharad",
   "Dist_Name": "Banas Kantha",
   "State_Name": "Gujarat"}},
 {"type": "Feature",
  "geometry": {"type": "symbol", "coordinates": [73.798, 22.192]},
  "properties": {"Block_Name": "Kawant",
   "Dist_Name": "Chhotaudepur",
   "State_Name": "Gujarat"}},
 {"type": "Feature",
  "geometry": {"type": "symbol", "coordinates": [73.606, 22.219]},
  "properties": {"Block_Name": "Naswadi",
   "Dist_Name": "Chhotaudepur",
   "State_Name": "Gujarat"}},
 {"type": "Feature",
  "geometry": {"type": "symbol", "coordinates": [74.504, 21.591]},
  "properties": {"Block_Name": "Subir",
   "Dist_Name": "Dang",
   "State_Name": "Gujarat"}},
 {"type": "Feature",
  "geometry": {"type": "symbol", "coordinates": [73.899, 20.824]},
  "properties": {"Block_Name": "Garbada",
   "Dist_Name": "Dohad",
   "State_Name": "Gujarat"}},
 {"type": "Feature",
  "geometry": {"type": "symbol", "coordinates": [68.791, 23.747]},
  "properties": {"Block_Name": "Lakhpat",
   "Dist_Name": "Kachchh",
   "State_Name": "Gujarat"}},
 {"type": "Feature",
  "geometry": {"type": "symbol", "coordinates": [68.42, 23.572]},
  "properties": {"Block_Name": "Rapar",
   "Dist_Name": "Kachchh",
   "State_Name": "Gujarat"}},
 {"type": "Feature",
  "geometry": {"type": "symbol", "coordinates": [73.542, 21.872]},
  "properties": {"Block_Name": "Nandod",
   "Dist_Name": "Narmada",
   "State_Name": "Gujarat"}},
 {"type": "Feature",
  "geometry": {"type": "symbol", "coordinates": [73.501, 22.429]},
  "properties": {"Block_Name": "Ghoghamba",
   "Dist_Name": "Panch Mahals",
   "State_Name": "Gujarat"}},
 {"type": "Feature",
  "geometry": {"type": "symbol", "coordinates": [70.144, 24.194]},
  "properties": {"Block_Name": "Santalpur",
   "Dist_Name": "Patan",
   "State_Name": "Gujarat"}},
 {"type": "Feature",
  "geometry": {"type": "symbol", "coordinates": [71.481, 22.533]},
  "properties": {"Block_Name": "Sayla",
   "Dist_Name": "Surendranagar",
   "State_Name": "Gujarat"}},
 {"type": "Feature",
  "geometry": {"type": "symbol", "coordinates": [71.599, 22.661]},
  "properties": {"Block_Name": "Kukarmunda",
   "Dist_Name": "Tapi",
   "State_Name": "Gujarat"}},
 {"type": "Feature",
  "geometry": {"type": "symbol", "coordinates": [73.156, 21.801]},
  "properties": {"Block_Name": "Nizar",
   "Dist_Name": "Tapi",
   "State_Name": "Gujarat"}},
 {"type": "Feature",
  "geometry": {"type": "symbol", "coordinates": [71.46, 22.715]},
  "properties": {"Block_Name": "Behal",
   "Dist_Name": "Bhiwani",
   "State_Name": "Haryana"}},
 {"type": "Feature",
  "geometry": {"type": "symbol", "coordinates": [75.81, 28.388]},
  "properties": {"Block_Name": "Loharu",
   "Dist_Name": "Bhiwani",
   "State_Name": "Haryana"}},
 {"type": "Feature",
  "geometry": {"type": "symbol", "coordinates": [75.824, 28.901]},
  "properties": {"Block_Name": "Badhra",
   "Dist_Name": "Charkhi Dadri",
   "State_Name": "Haryana"}},
 {"type": "Feature",
  "geometry": {"type": "symbol", "coordinates": [77.002, 28.123]},
  "properties": {"Block_Name": "Nuh",
   "Dist_Name": "Nuh",
   "State_Name": "Haryana"}},
 {"type": "Feature",
  "geometry": {"type": "symbol", "coordinates": [77.269, 27.869]},
  "properties": {"Block_Name": "Punhana",
   "Dist_Name": "Nuh",
   "State_Name": "Haryana"}},
 {"type": "Feature",
  "geometry": {"type": "symbol", "coordinates": [77.306, 27.932]},
  "properties": {"Block_Name": "Hathin",
   "Dist_Name": "Palwal",
   "State_Name": "Haryana"}},
 {"type": "Feature",
  "geometry": {"type": "symbol", "coordinates": [77.397, 28.202]},
  "properties": {"Block_Name": "Nahar",
   "Dist_Name": "Rewari",
   "State_Name": "Haryana"}},
 {"type": "Feature",
  "geometry": {"type": "symbol", "coordinates": [76.363, 32.066]},
  "properties": {"Block_Name": "Pangi",
   "Dist_Name": "Chamba",
   "State_Name": "Himachal Pradesh"}},
 {"type": "Feature",
  "geometry": {"type": "symbol", "coordinates": [75.729, 32.49]},
  "properties": {"Block_Name": "Tissa",
   "Dist_Name": "Chamba",
   "State_Name": "Himachal Pradesh"}},
 {"type": "Feature",
  "geometry": {"type": "symbol", "coordinates": [78.168, 32.529]},
  "properties": {"Block_Name": "Pooh",
   "Dist_Name": "Kinnaur",
   "State_Name": "Himachal Pradesh"}},
 {"type": "Feature",
  "geometry": {"type": "symbol", "coordinates": [77.736, 31.643]},
  "properties": {"Block_Name": "Nirmand",
   "Dist_Name": "Kullu",
   "State_Name": "Himachal Pradesh"}},
 {"type": "Feature",
  "geometry": {"type": "symbol", "coordinates": [77.58, 31.594]},
  "properties": {"Block_Name": "Chhaohara",
   "Dist_Name": "Shimla",
   "State_Name": "Himachal Pradesh"}},
 {"type": "Feature",
  "geometry": {"type": "symbol", "coordinates": [77.518, 31.661]},
  "properties": {"Block_Name": "Kupvi",
   "Dist_Name": "Shimla",
   "State_Name": "Himachal Pradesh"}},
 {"type": "Feature",
  "geometry": {"type": "symbol", "coordinates": [76.911, 32.873]},
  "properties": {"Block_Name": "Marwah",
   "Dist_Name": "Kishtwar",
   "State_Name": "Jammu & Kashmir"}},
 {"type": "Feature",
  "geometry": {"type": "symbol", "coordinates": [74.872, 33.038]},
  "properties": {"Block_Name": "Mankote",
   "Dist_Name": "Poonch",
   "State_Name": "Jammu & Kashmir"}},
 {"type": "Feature",
  "geometry": {"type": "symbol", "coordinates": [74.686, 32.847]},
  "properties": {"Block_Name": "Khwas",
   "Dist_Name": "Rajouri",
   "State_Name": "Jammu & Kashmir"}},
 {"type": "Feature",
  "geometry": {"type": "symbol", "coordinates": [75.502, 32.944]},
  "properties": {"Block_Name": "Khari",
   "Dist_Name": "Ramban",
   "State_Name": "Jammu & Kashmir"}},
 {"type": "Feature",
  "geometry": {"type": "symbol", "coordinates": [75.196, 32.73]},
  "properties": {"Block_Name": "Tulail",
   "Dist_Name": "Bandipora",
   "State_Name": "Jammu & Kashmir"}},
 {"type": "Feature",
  "geometry": {"type": "symbol", "coordinates": [74.686, 34.309]},
  "properties": {"Block_Name": "Singhpora",
   "Dist_Name": "Baramulla",
   "State_Name": "Jammu & Kashmir"}},
 {"type": "Feature",
  "geometry": {"type": "symbol", "coordinates": [75.447, 33.762]},
  "properties": {"Block_Name": "Manzgam",
   "Dist_Name": "Kulgam",
   "State_Name": "Jammu & Kashmir"}},
 {"type": "Feature",
  "geometry": {"type": "symbol", "coordinates": [74.736, 34.645]},
  "properties": {"Block_Name": "Keran",
   "Dist_Name": "Kupwara",
   "State_Name": "Jammu & Kashmir"}},
 {"type": "Feature",
  "geometry": {"type": "symbol", "coordinates": [74.663, 33.669]},
  "properties": {"Block_Name": "Ichegoza",
   "Dist_Name": "Pulwama",
   "State_Name": "Jammu & Kashmir"}},
 {"type": "Feature",
  "geometry": {"type": "symbol", "coordinates": [74.988, 34.052]},
  "properties": {"Block_Name": "Thakrakote",
   "Dist_Name": "Reasi",
   "State_Name": "Jammu & Kashmir"}},
 {"type": "Feature",
  "geometry": {"type": "symbol", "coordinates": [85.88, 23.77]},
  "properties": {"Block_Name": "Gomia",
   "Dist_Name": "Bokaro",
   "State_Name": "Jharkhand"}},
 {"type": "Feature",
  "geometry": {"type": "symbol", "coordinates": [85.926, 23.255]},
  "properties": {"Block_Name": "Mayurhand",
   "Dist_Name": "Chatra",
   "State_Name": "Jharkhand"}},
 {"type": "Feature",
  "geometry": {"type": "symbol", "coordinates": [85.821, 23.609]},
  "properties": {"Block_Name": "Devipur",
   "Dist_Name": "Deoghar",
   "State_Name": "Jharkhand"}},
 {"type": "Feature",
  "geometry": {"type": "symbol", "coordinates": [86.012, 23.384]},
  "properties": {"Block_Name": "Karown",
   "Dist_Name": "Deoghar",
   "State_Name": "Jharkhand"}},
 {"type": "Feature",
  "geometry": {"type": "symbol", "coordinates": [85.888, 23.172]},
  "properties": {"Block_Name": "Sarath",
   "Dist_Name": "Deoghar",
   "State_Name": "Jharkhand"}},
 {"type": "Feature",
  "geometry": {"type": "symbol", "coordinates": [85.817, 23.313]},
  "properties": {"Block_Name": "Sarwan",
   "Dist_Name": "Deoghar",
   "State_Name": "Jharkhand"}},
 {"type": "Feature",
  "geometry": {"type": "symbol", "coordinates": [85.656, 23.197]},
  "properties": {"Block_Name": "Govindpur",
   "Dist_Name": "Dhanbad",
   "State_Name": "Jharkhand"}},
 {"type": "Feature",
  "geometry": {"type": "symbol", "coordinates": [86.135, 23.774]},
  "properties": {"Block_Name": "Jarmundi",
   "Dist_Name": "Dumka",
   "State_Name": "Jharkhand"}},
 {"type": "Feature",
  "geometry": {"type": "symbol", "coordinates": [86.155, 23.646]},
  "properties": {"Block_Name": "Ramgarh",
   "Dist_Name": "Dumka",
   "State_Name": "Jharkhand"}},
 {"type": "Feature",
  "geometry": {"type": "symbol", "coordinates": [86.016, 22.409]},
  "properties": {"Block_Name": "Musabani",
   "Dist_Name": "East Singhbum",
   "State_Name": "Jharkhand"}},
 {"type": "Feature",
  "geometry": {"type": "symbol", "coordinates": [86.218, 23.201]},
  "properties": {"Block_Name": "Manjhiaon",
   "Dist_Name": "Garhwa",
   "State_Name": "Jharkhand"}},
 {"type": "Feature",
  "geometry": {"type": "symbol", "coordinates": [86.161, 23.804]},
  "properties": {"Block_Name": "Jamua",
   "Dist_Name": "Giridih",
   "State_Name": "Jharkhand"}},
 {"type": "Feature",
  "geometry": {"type": "symbol", "coordinates": [86.329, 24.241]},
  "properties": {"Block_Name": "Sundarpahari",
   "Dist_Name": "Godda",
   "State_Name": "Jharkhand"}},
 {"type": "Feature",
  "geometry": {"type": "symbol", "coordinates": [85.774, 24.286]},
  "properties": {"Block_Name": "Dumri",
   "Dist_Name": "Gumla",
   "State_Name": "Jharkhand"}},
 {"type": "Feature",
  "geometry": {"type": "symbol", "coordinates": [85.816, 23.765]},
  "properties": {"Block_Name": "Chouparan",
   "Dist_Name": "Hazaribagh",
   "State_Name": "Jharkhand"}},
 {"type": "Feature",
  "geometry": {"type": "symbol", "coordinates": [85.951, 23.583]},
  "properties": {"Block_Name": "Katkamdag",
   "Dist_Name": "Hazaribagh",
   "State_Name": "Jharkhand"}},
 {"type": "Feature",
  "geometry": {"type": "symbol", "coordinates": [85.588, 23.634]},
  "properties": {"Block_Name": "Fatehpur",
   "Dist_Name": "Jamtara",
   "State_Name": "Jharkhand"}},
 {"type": "Feature",
  "geometry": {"type": "symbol", "coordinates": [85.942, 23.955]},
  "properties": {"Block_Name": "Karmatanr Vidyasagar",
   "Dist_Name": "Jamtara",
   "State_Name": "Jharkhand"}},
 {"type": "Feature",
  "geometry": {"type": "symbol", "coordinates": [85.915, 24.193]},
  "properties": {"Block_Name": "Karra",
   "Dist_Name": "Khunti",
   "State_Name": "Jharkhand"}},
 {"type": "Feature",
  "geometry": {"type": "symbol", "coordinates": [85.734, 24.22]},
  "properties": {"Block_Name": "Jainagar",
   "Dist_Name": "Koderma",
   "State_Name": "Jharkhand"}},
 {"type": "Feature",
  "geometry": {"type": "symbol", "coordinates": [86.343, 23.859]},
  "properties": {"Block_Name": "Markacho",
   "Dist_Name": "Koderma",
   "State_Name": "Jharkhand"}},
 {"type": "Feature",
  "geometry": {"type": "symbol", "coordinates": [85.383, 22.533]},
  "properties": {"Block_Name": "Mahuadanr",
   "Dist_Name": "Latehar",
   "State_Name": "Jharkhand"}},
 {"type": "Feature",
  "geometry": {"type": "symbol", "coordinates": [85.922, 23.861]},
  "properties": {"Block_Name": "Kisko",
   "Dist_Name": "Lohardaga",
   "State_Name": "Jharkhand"}},
 {"type": "Feature",
  "geometry": {"type": "symbol", "coordinates": [87.617, 24.214]},
  "properties": {"Block_Name": "Littipara",
   "Dist_Name": "Pakur",
   "State_Name": "Jharkhand"}},
 {"type": "Feature",
  "geometry": {"type": "symbol", "coordinates": [86.652, 24.738]},
  "properties": {"Block_Name": "Hariharganj",
   "Dist_Name": "Palamu",
   "State_Name": "Jharkhand"}},
 {"type": "Feature",
  "geometry": {"type": "symbol", "coordinates": [85.399, 23.66]},
  "properties": {"Block_Name": "Patratu",
   "Dist_Name": "Ramgarh",
   "State_Name": "Jharkhand"}},
 {"type": "Feature",
  "geometry": {"type": "symbol", "coordinates": [85.534, 23.636]},
  "properties": {"Block_Name": "Mandar",
   "Dist_Name": "Ranchi",
   "State_Name": "Jharkhand"}},
 {"type": "Feature",
  "geometry": {"type": "symbol", "coordinates": [85.675, 23.895]},
  "properties": {"Block_Name": "Mandro",
   "Dist_Name": "Sahebganj",
   "State_Name": "Jharkhand"}},
 {"type": "Feature",
  "geometry": {"type": "symbol", "coordinates": [86.169, 22.744]},
  "properties": {"Block_Name": "Gamharia",
   "Dist_Name": "Saraikela Kharsawan",
   "State_Name": "Jharkhand"}},
 {"type": "Feature",
  "geometry": {"type": "symbol", "coordinates": [85.583, 23.715]},
  "properties": {"Block_Name": "Kukru",
   "Dist_Name": "Saraikela Kharsawan",
   "State_Name": "Jharkhand"}},
 {"type": "Feature",
  "geometry": {"type": "symbol", "coordinates": [85.942, 22.735]},
  "properties": {"Block_Name": "Seraikella",
   "Dist_Name": "Saraikela Kharsawan",
   "State_Name": "Jharkhand"}},
 {"type": "Feature",
  "geometry": {"type": "symbol", "coordinates": [86.001, 22.786]},
  "properties": {"Block_Name": "Bansjore",
   "Dist_Name": "Simdega",
   "State_Name": "Jharkhand"}},
 {"type": "Feature",
  "geometry": {"type": "symbol", "coordinates": [86.13, 22.829]},
  "properties": {"Block_Name": "Gudri",
   "Dist_Name": "West Singhbhum",
   "State_Name": "Jharkhand"}},
 {"type": "Feature",
  "geometry": {"type": "symbol", "coordinates": [85.991, 22.854]},
  "properties": {"Block_Name": "Tonto",
   "Dist_Name": "West Singhbhum",
   "State_Name": "Jharkhand"}},
 {"type": "Feature",
  "geometry": {"type": "symbol", "coordinates": [76.932, 15.407]},
  "properties": {"Block_Name": "Kampli",
   "Dist_Name": "Ballari",
   "State_Name": "Karnataka"}},
 {"type": "Feature",
  "geometry": {"type": "symbol", "coordinates": [77.29, 17.225]},
  "properties": {"Block_Name": "Aurad",
   "Dist_Name": "Bidar",
   "State_Name": "Karnataka"}},
 {"type": "Feature",
  "geometry": {"type": "symbol", "coordinates": [77.311, 17.015]},
  "properties": {"Block_Name": "Chittaguppa",
   "Dist_Name": "Bidar",
   "State_Name": "Karnataka"}},
 {"type": "Feature",
  "geometry": {"type": "symbol", "coordinates": [77.026, 17.599]},
  "properties": {"Block_Name": "Humnabad",
   "Dist_Name": "Bidar",
   "State_Name": "Karnataka"}},
 {"type": "Feature",
  "geometry": {"type": "symbol", "coordinates": [77.314, 17.387]},
  "properties": {"Block_Name": "Kamalanagara",
   "Dist_Name": "Bidar",
   "State_Name": "Karnataka"}},
 {"type": "Feature",
  "geometry": {"type": "symbol", "coordinates": [76.745, 17.15]},
  "properties": {"Block_Name": "Afzalpur",
   "Dist_Name": "Kalburgi",
   "State_Name": "Karnataka"}},
 {"type": "Feature",
  "geometry": {"type": "symbol", "coordinates": [76.812, 17.332]},
  "properties": {"Block_Name": "Kalagi",
   "Dist_Name": "Kalburgi",
   "State_Name": "Karnataka"}},
 {"type": "Feature",
  "geometry": {"type": "symbol", "coordinates": [76.935, 17.121]},
  "properties": {"Block_Name": "Shahbadha",
   "Dist_Name": "Kalburgi",
   "State_Name": "Karnataka"}},
 {"type": "Feature",
  "geometry": {"type": "symbol", "coordinates": [76.259, 16.241]},
  "properties": {"Block_Name": "Maski",
   "Dist_Name": "Raichur",
   "State_Name": "Karnataka"}},
 {"type": "Feature",
  "geometry": {"type": "symbol", "coordinates": [75.821, 16.46]},
  "properties": {"Block_Name": "Sirivara",
   "Dist_Name": "Raichur",
   "State_Name": "Karnataka"}},
 {"type": "Feature",
  "geometry": {"type": "symbol", "coordinates": [75.032, 14.966]},
  "properties": {"Block_Name": "Mundgod",
   "Dist_Name": "Uttara Kannada",
   "State_Name": "Karnataka"}},
 {"type": "Feature",
  "geometry": {"type": "symbol", "coordinates": [74.997, 15.047]},
  "properties": {"Block_Name": "Supa",
   "Dist_Name": "Uttara Kannada",
   "State_Name": "Karnataka"}},
 {"type": "Feature",
  "geometry": {"type": "symbol", "coordinates": [75.007, 15.245]},
  "properties": {"Block_Name": "Thalikoti",
   "Dist_Name": "Vijayapura",
   "State_Name": "Karnataka"}},
 {"type": "Feature",
  "geometry": {"type": "symbol", "coordinates": [75.126, 15.171]},
  "properties": {"Block_Name": "Vadagera",
   "Dist_Name": "Yadgir",
   "State_Name": "Karnataka"}},
 {"type": "Feature",
  "geometry": {"type": "symbol", "coordinates": [77.272, 9.93]},
  "properties": {"Block_Name": "Azhutha",
   "Dist_Name": "Idukki",
   "State_Name": "Kerala"}},
 {"type": "Feature",
  "geometry": {"type": "symbol", "coordinates": [77.17, 10.013]},
  "properties": {"Block_Name": "Devikulam",
   "Dist_Name": "Idukki",
   "State_Name": "Kerala"}},
 {"type": "Feature",
  "geometry": {"type": "symbol", "coordinates": [75.448, 12.701]},
  "properties": {"Block_Name": "Parappa",
   "Dist_Name": "Kasargod",
   "State_Name": "Kerala"}},
 {"type": "Feature",
  "geometry": {"type": "symbol", "coordinates": [76.628, 10.654]},
  "properties": {"Block_Name": "Attappadi",
   "Dist_Name": "Palakkad",
   "State_Name": "Kerala"}},
 {"type": "Feature",
  "geometry": {"type": "symbol", "coordinates": [76.667, 10.707]},
  "properties": {"Block_Name": "Kollengode",
   "Dist_Name": "Palakkad",
   "State_Name": "Kerala"}},
 {"type": "Feature",
  "geometry": {"type": "symbol", "coordinates": [76.083, 11.611]},
  "properties": {"Block_Name": "Kalpetta",
   "Dist_Name": "Wayanad",
   "State_Name": "Kerala"}},
 {"type": "Feature",
  "geometry": {"type": "symbol", "coordinates": [76.0, 11.803]},
  "properties": {"Block_Name": "Mananthavady",
   "Dist_Name": "Wayanad",
   "State_Name": "Kerala"}},
 {"type": "Feature",
  "geometry": {"type": "symbol", "coordinates": [76.097, 11.805]},
  "properties": {"Block_Name": "Panamaram",
   "Dist_Name": "Wayanad",
   "State_Name": "Kerala"}},
 {"type": "Feature",
  "geometry": {"type": "symbol", "coordinates": [76.288, 11.68]},
  "properties": {"Block_Name": "Sulthanbathery",
   "Dist_Name": "Wayanad",
   "State_Name": "Kerala"}},
 {"type": "Feature",
  "geometry": {"type": "symbol", "coordinates": [76.755, 34.502]},
  "properties": {"Block_Name": "Karsha",
   "Dist_Name": "Kargil",
   "State_Name": "Ladakh"}},
 {"type": "Feature",
  "geometry": {"type": "symbol", "coordinates": [78.275, 34.474]},
  "properties": {"Block_Name": "Rupsho",
   "Dist_Name": "Leh",
   "State_Name": "Ladakh"}},
 {"type": "Feature",
  "geometry": {"type": "symbol", "coordinates": [80.142, 25.324]},
  "properties": {"Block_Name": "Kattiwada",
   "Dist_Name": "Alirajpur",
   "State_Name": "Madhya Pradesh"}},
 {"type": "Feature",
  "geometry": {"type": "symbol", "coordinates": [80.781, 24.821]},
  "properties": {"Block_Name": "Udaigarh",
   "Dist_Name": "Alirajpur",
   "State_Name": "Madhya Pradesh"}},
 {"type": "Feature",
  "geometry": {"type": "symbol", "coordinates": [80.013, 24.184]},
  "properties": {"Block_Name": "Pushprajgarh",
   "Dist_Name": "Anuppur",
   "State_Name": "Madhya Pradesh"}},
 {"type": "Feature",
  "geometry": {"type": "symbol", "coordinates": [81.115, 24.74]},
  "properties": {"Block_Name": "Pati",
   "Dist_Name": "Barwani",
   "State_Name": "Madhya Pradesh"}},
 {"type": "Feature",
  "geometry": {"type": "symbol", "coordinates": [78.438, 26.429]},
  "properties": {"Block_Name": "Gohad",
   "Dist_Name": "Bhind",
   "State_Name": "Madhya Pradesh"}},
 {"type": "Feature",
  "geometry": {"type": "symbol", "coordinates": [78.038, 24.666]},
  "properties": {"Block_Name": "Buxwaha",
   "Dist_Name": "Chhatarpur",
   "State_Name": "Madhya Pradesh"}},
 {"type": "Feature",
  "geometry": {"type": "symbol", "coordinates": [80.006, 24.487]},
  "properties": {"Block_Name": "Tendukheda",
   "Dist_Name": "Damoh",
   "State_Name": "Madhya Pradesh"}},
 {"type": "Feature",
  "geometry": {"type": "symbol", "coordinates": [76.675, 23.237]},
  "properties": {"Block_Name": "Tirla",
   "Dist_Name": "Dhar",
   "State_Name": "Madhya Pradesh"}},
 {"type": "Feature",
  "geometry": {"type": "symbol", "coordinates": [77.327, 23.023]},
  "properties": {"Block_Name": "Bajag",
   "Dist_Name": "Dindori",
   "State_Name": "Madhya Pradesh"}},
 {"type": "Feature",
  "geometry": {"type": "symbol", "coordinates": [86.123, 21.804]},
  "properties": {"Block_Name": "Karanjia",
   "Dist_Name": "Dindori",
   "State_Name": "Madhya Pradesh"}},
 {"type": "Feature",
  "geometry": {"type": "symbol", "coordinates": [85.93, 21.893]},
  "properties": {"Block_Name": "Mehndwani",
   "Dist_Name": "Dindori",
   "State_Name": "Madhya Pradesh"}},
 {"type": "Feature",
  "geometry": {"type": "symbol", "coordinates": [75.76, 23.059]},
  "properties": {"Block_Name": "Bamori",
   "Dist_Name": "Guna",
   "State_Name": "Madhya Pradesh"}},
 {"type": "Feature",
  "geometry": {"type": "symbol", "coordinates": [74.989, 23.416]},
  "properties": {"Block_Name": "Meghnagar",
   "Dist_Name": "Jhabua",
   "State_Name": "Madhya Pradesh"}},
 {"type": "Feature",
  "geometry": {"type": "symbol", "coordinates": [74.689, 22.979]},
  "properties": {"Block_Name": "Rama",
   "Dist_Name": "Jhabua",
   "State_Name": "Madhya Pradesh"}},
 {"type": "Feature",
  "geometry": {"type": "symbol", "coordinates": [74.853, 22.266]},
  "properties": {"Block_Name": "Ranapur",
   "Dist_Name": "Jhabua",
   "State_Name": "Madhya Pradesh"}},
 {"type": "Feature",
  "geometry": {"type": "symbol", "coordinates": [74.979, 23.042]},
  "properties": {"Block_Name": "Thandla",
   "Dist_Name": "Jhabua",
   "State_Name": "Madhya Pradesh"}},
 {"type": "Feature",
  "geometry": {"type": "symbol", "coordinates": [74.973, 23.499]},
  "properties": {"Block_Name": "Rithi",
   "Dist_Name": "Katni",
   "State_Name": "Madhya Pradesh"}},
 {"type": "Feature",
  "geometry": {"type": "symbol", "coordinates": [75.735, 22.666]},
  "properties": {"Block_Name": "Chhaigaon Makhan",
   "Dist_Name": "Khandwa (East Nimar)",
   "State_Name": "Madhya Pradesh"}},
 {"type": "Feature",
  "geometry": {"type": "symbol", "coordinates": [75.465, 23.289]},
  "properties": {"Block_Name": "Bhagvanpura",
   "Dist_Name": "Khargone",
   "State_Name": "Madhya Pradesh"}},
 {"type": "Feature",
  "geometry": {"type": "symbol", "coordinates": [74.952, 22.85]},
  "properties": {"Block_Name": "Ziranya",
   "Dist_Name": "Khargone",
   "State_Name": "Madhya Pradesh"}},
 {"type": "Feature",
  "geometry": {"type": "symbol", "coordinates": [75.4, 23.241]},
  "properties": {"Block_Name": "Mavai",
   "Dist_Name": "Mandla",
   "State_Name": "Madhya Pradesh"}},
 {"type": "Feature",
  "geometry": {"type": "symbol", "coordinates": [74.621, 22.502]},
  "properties": {"Block_Name": "Narayanganj",
   "Dist_Name": "Mandla",
   "State_Name": "Madhya Pradesh"}},
 {"type": "Feature",
  "geometry": {"type": "symbol", "coordinates": [75.26, 23.278]},
  "properties": {"Block_Name": "Pahadgarh",
   "Dist_Name": "Morena",
   "State_Name": "Madhya Pradesh"}},
 {"type": "Feature",
  "geometry": {"type": "symbol", "coordinates": [78.16, 24.206]},
  "properties": {"Block_Name": "Prithvipur",
   "Dist_Name": "Niwari",
   "State_Name": "Madhya Pradesh"}},
 {"type": "Feature",
  "geometry": {"type": "symbol", "coordinates": [80.262, 24.901]},
  "properties": {"Block_Name": "Ajaigarh",
   "Dist_Name": "Panna",
   "State_Name": "Madhya Pradesh"}},
 {"type": "Feature",
  "geometry": {"type": "symbol", "coordinates": [76.888, 23.3]},
  "properties": {"Block_Name": "Zirapur",
   "Dist_Name": "Rajgarh",
   "State_Name": "Madhya Pradesh"}},
 {"type": "Feature",
  "geometry": {"type": "symbol", "coordinates": [78.144, 26.028]},
  "properties": {"Block_Name": "Bajna",
   "Dist_Name": "Ratlam",
   "State_Name": "Madhya Pradesh"}},
 {"type": "Feature",
  "geometry": {"type": "symbol", "coordinates": [80.91, 24.852]},
  "properties": {"Block_Name": "Hanumana",
   "Dist_Name": "Rewa",
   "State_Name": "Madhya Pradesh"}},
 {"type": "Feature",
  "geometry": {"type": "symbol", "coordinates": [80.94, 23.806]},
  "properties": {"Block_Name": "Jawa",
   "Dist_Name": "Rewa",
   "State_Name": "Madhya Pradesh"}},
 {"type": "Feature",
  "geometry": {"type": "symbol", "coordinates": [80.967, 24.375]},
  "properties": {"Block_Name": "Sirmour",
   "Dist_Name": "Rewa",
   "State_Name": "Madhya Pradesh"}},
 {"type": "Feature",
  "geometry": {"type": "symbol", "coordinates": [79.819, 24.187]},
  "properties": {"Block_Name": "Majhgawan",
   "Dist_Name": "Satna",
   "State_Name": "Madhya Pradesh"}},
 {"type": "Feature",
  "geometry": {"type": "symbol", "coordinates": [80.931, 24.56]},
  "properties": {"Block_Name": "Rampur Baghelan",
   "Dist_Name": "Satna",
   "State_Name": "Madhya Pradesh"}},
 {"type": "Feature",
  "geometry": {"type": "symbol", "coordinates": [75.603, 25.314]},
  "properties": {"Block_Name": "Pali 1 (Gohparu)",
   "Dist_Name": "Shahdol",
   "State_Name": "Madhya Pradesh"}},
 {"type": "Feature",
  "geometry": {"type": "symbol", "coordinates": [76.305, 25.882]},
  "properties": {"Block_Name": "Karahal",
   "Dist_Name": "Sheopur",
   "State_Name": "Madhya Pradesh"}},
 {"type": "Feature",
  "geometry": {"type": "symbol", "coordinates": [76.712, 25.665]},
  "properties": {"Block_Name": "Sheopur",
   "Dist_Name": "Sheopur",
   "State_Name": "Madhya Pradesh"}},
 {"type": "Feature",
  "geometry": {"type": "symbol", "coordinates": [76.908, 25.198]},
  "properties": {"Block_Name": "Vijaypur",
   "Dist_Name": "Sheopur",
   "State_Name": "Madhya Pradesh"}},
 {"type": "Feature",
  "geometry": {"type": "symbol", "coordinates": [77.584, 25.147]},
  "properties": {"Block_Name": "Kolaras",
   "Dist_Name": "Shivpuri",
   "State_Name": "Madhya Pradesh"}},
 {"type": "Feature",
  "geometry": {"type": "symbol", "coordinates": [78.17, 25.012]},
  "properties": {"Block_Name": "Pichore",
   "Dist_Name": "Shivpuri",
   "State_Name": "Madhya Pradesh"}},
 {"type": "Feature",
  "geometry": {"type": "symbol", "coordinates": [78.725, 25.346]},
  "properties": {"Block_Name": "Devsar",
   "Dist_Name": "Singrauli",
   "State_Name": "Madhya Pradesh"}},
 {"type": "Feature",
  "geometry": {"type": "symbol", "coordinates": [79.697, 23.9]},
  "properties": {"Block_Name": "Baldeogarh",
   "Dist_Name": "Tikamgarh",
   "State_Name": "Madhya Pradesh"}},
 {"type": "Feature",
  "geometry": {"type": "symbol", "coordinates": [80.444, 24.918]},
  "properties": {"Block_Name": "Manpur",
   "Dist_Name": "Umaria",
   "State_Name": "Madhya Pradesh"}},
 {"type": "Feature",
  "geometry": {"type": "symbol", "coordinates": [77.93, 23.862]},
  "properties": {"Block_Name": "Basoda",
   "Dist_Name": "Vidisha",
   "State_Name": "Madhya Pradesh"}},
 {"type": "Feature",
  "geometry": {"type": "symbol", "coordinates": [77.729, 21.449]},
  "properties": {"Block_Name": "Chikhaldara",
   "Dist_Name": "Amravati",
   "State_Name": "Maharashtra"}},
 {"type": "Feature",
  "geometry": {"type": "symbol", "coordinates": [78.18, 21.331]},
  "properties": {"Block_Name": "Dharni",
   "Dist_Name": "Amravati",
   "State_Name": "Maharashtra"}},
 {"type": "Feature",
  "geometry": {"type": "symbol", "coordinates": [76.245, 20.189]},
  "properties": {"Block_Name": "Wadwani",
   "Dist_Name": "Beed",
   "State_Name": "Maharashtra"}},
 {"type": "Feature",
  "geometry": {"type": "symbol", "coordinates": [79.211, 19.928]},
  "properties": {"Block_Name": "Jiwati",
   "Dist_Name": "Chandrapur",
   "State_Name": "Maharashtra"}},
 {"type": "Feature",
  "geometry": {"type": "symbol", "coordinates": [80.19, 19.65]},
  "properties": {"Block_Name": "Aheri",
   "Dist_Name": "Gadhichiroli",
   "State_Name": "Maharashtra"}},
 {"type": "Feature",
  "geometry": {"type": "symbol", "coordinates": [80.318, 19.691]},
  "properties": {"Block_Name": "Bhamragarh",
   "Dist_Name": "Gadhichiroli",
   "State_Name": "Maharashtra"}},
 {"type": "Feature",
  "geometry": {"type": "symbol", "coordinates": [80.874, 18.746]},
  "properties": {"Block_Name": "Sironcha",
   "Dist_Name": "Gadhichiroli",
   "State_Name": "Maharashtra"}},
 {"type": "Feature",
  "geometry": {"type": "symbol", "coordinates": [77.158, 19.719]},
  "properties": {"Block_Name": "Hingoli",
   "Dist_Name": "Hingoli",
   "State_Name": "Maharashtra"}},
 {"type": "Feature",
  "geometry": {"type": "symbol", "coordinates": [75.958, 19.899]},
  "properties": {"Block_Name": "Badnapur",
   "Dist_Name": "Jalna",
   "State_Name": "Maharashtra"}},
 {"type": "Feature",
  "geometry": {"type": "symbol", "coordinates": [76.203, 19.603]},
  "properties": {"Block_Name": "Partur",
   "Dist_Name": "Jalna",
   "State_Name": "Maharashtra"}},
 {"type": "Feature",
  "geometry": {"type": "symbol", "coordinates": [78.312, 19.629]},
  "properties": {"Block_Name": "Kinwat",
   "Dist_Name": "Nanded",
   "State_Name": "Maharashtra"}},
 {"type": "Feature",
  "geometry": {"type": "symbol", "coordinates": [74.552, 21.396]},
  "properties": {"Block_Name": "Akkalkuva",
   "Dist_Name": "Nandurbar",
   "State_Name": "Maharashtra"}},
 {"type": "Feature",
  "geometry": {"type": "symbol", "coordinates": [74.359, 21.387]},
  "properties": {"Block_Name": "Akarani",
   "Dist_Name": "Nandurbar",
   "State_Name": "Maharashtra"}},
 {"type": "Feature",
  "geometry": {"type": "symbol", "coordinates": [73.495, 21.117]},
  "properties": {"Block_Name": "Navapur",
   "Dist_Name": "Nandurbar",
   "State_Name": "Maharashtra"}},
 {"type": "Feature",
  "geometry": {"type": "symbol", "coordinates": [74.177, 21.49]},
  "properties": {"Block_Name": "Taloda",
   "Dist_Name": "Nandurbar",
   "State_Name": "Maharashtra"}},
 {"type": "Feature",
  "geometry": {"type": "symbol", "coordinates": [73.62, 20.532]},
  "properties": {"Block_Name": "Surgana",
   "Dist_Name": "Nashik",
   "State_Name": "Maharashtra"}},
 {"type": "Feature",
  "geometry": {"type": "symbol", "coordinates": [75.367, 18.847]},
  "properties": {"Block_Name": "Paranda",
   "Dist_Name": "Osmanabad",
   "State_Name": "Maharashtra"}},
 {"type": "Feature",
  "geometry": {"type": "symbol", "coordinates": [72.723, 19.99]},
  "properties": {"Block_Name": "Dahanu",
   "Dist_Name": "Palghar",
   "State_Name": "Maharashtra"}},
 {"type": "Feature",
  "geometry": {"type": "symbol", "coordinates": [73.234, 19.928]},
  "properties": {"Block_Name": "Jawahar",
   "Dist_Name": "Palghar",
   "State_Name": "Maharashtra"}},
 {"type": "Feature",
  "geometry": {"type": "symbol", "coordinates": [73.384, 20.104]},
  "properties": {"Block_Name": "Talasari",
   "Dist_Name": "Palghar",
   "State_Name": "Maharashtra"}},
 {"type": "Feature",
  "geometry": {"type": "symbol", "coordinates": [73.38, 19.81]},
  "properties": {"Block_Name": "Vikramgad",
   "Dist_Name": "Palghar",
   "State_Name": "Maharashtra"}},
 {"type": "Feature",
  "geometry": {"type": "symbol", "coordinates": [76.201, 17.517]},
  "properties": {"Block_Name": "Akkalkot",
   "Dist_Name": "Solapur",
   "State_Name": "Maharashtra"}},
 {"type": "Feature",
  "geometry": {"type": "symbol", "coordinates": [75.203, 17.438]},
  "properties": {"Block_Name": "Sangola",
   "Dist_Name": "Solapur",
   "State_Name": "Maharashtra"}},
 {"type": "Feature",
  "geometry": {"type": "symbol", "coordinates": [77.484, 20.489]},
  "properties": {"Block_Name": "Karanja",
   "Dist_Name": "Wardha",
   "State_Name": "Maharashtra"}},
 {"type": "Feature",
  "geometry": {"type": "symbol", "coordinates": [74.534, 20.55]},
  "properties": {"Block_Name": "Malegaon",
   "Dist_Name": "Washim",
   "State_Name": "Maharashtra"}},
 {"type": "Feature",
  "geometry": {"type": "symbol", "coordinates": [77.574, 19.914]},
  "properties": {"Block_Name": "Pusad",
   "Dist_Name": "Yavatmal",
   "State_Name": "Maharashtra"}},
 {"type": "Feature",
  "geometry": {"type": "symbol", "coordinates": [77.537, 20.828]},
  "properties": {"Block_Name": "Zari Jamni",
   "Dist_Name": "Yavatmal",
   "State_Name": "Maharashtra"}},
 {"type": "Feature",
  "geometry": {"type": "symbol", "coordinates": [94.259, 24.49]},
  "properties": {"Block_Name": "Chakpikarong",
   "Dist_Name": "Chandel",
   "State_Name": "Manipur"}},
 {"type": "Feature",
  "geometry": {"type": "symbol", "coordinates": [93.943, 24.7]},
  "properties": {"Block_Name": "Lamka South",
   "Dist_Name": "Churachandpur",
   "State_Name": "Manipur"}},
 {"type": "Feature",
  "geometry": {"type": "symbol", "coordinates": [93.905, 24.66]},
  "properties": {"Block_Name": "Tuibong",
   "Dist_Name": "Churachandpur",
   "State_Name": "Manipur"}},
 {"type": "Feature",
  "geometry": {"type": "symbol", "coordinates": [90.494, 25.884]},
  "properties": {"Block_Name": "Resubelpara",
   "Dist_Name": "Ngh (Garo Region)",
   "State_Name": "Meghalaya"}},
 {"type": "Feature",
  "geometry": {"type": "symbol", "coordinates": [91.434, 25.81]},
  "properties": {"Block_Name": "Umling",
   "Dist_Name": "Ri Bhoi",
   "State_Name": "Meghalaya"}},
 {"type": "Feature",
  "geometry": {"type": "symbol", "coordinates": [92.295, 25.332]},
  "properties": {"Block_Name": "Amlarem",
   "Dist_Name": "Wjh (Jaintia Region)",
   "State_Name": "Meghalaya"}},
 {"type": "Feature",
  "geometry": {"type": "symbol", "coordinates": [93.293, 23.634]},
  "properties": {"Block_Name": "Lungsen",
   "Dist_Name": "Lunglei",
   "State_Name": "Mizoram"}},
 {"type": "Feature",
  "geometry": {"type": "symbol", "coordinates": [92.718, 25.155]},
  "properties": {"Block_Name": "Reiek",
   "Dist_Name": "Mamit",
   "State_Name": "Mizoram"}},
 {"type": "Feature",
  "geometry": {"type": "symbol", "coordinates": [92.797, 25.317]},
  "properties": {"Block_Name": "Ngopa",
   "Dist_Name": "Saitual",
   "State_Name": "Mizoram"}},
 {"type": "Feature",
  "geometry": {"type": "symbol", "coordinates": [95.556, 27.02]},
  "properties": {"Block_Name": "Khonsa",
   "Dist_Name": "Kiphire",
   "State_Name": "Nagaland"}},
 {"type": "Feature",
  "geometry": {"type": "symbol", "coordinates": [95.566, 27.255]},
  "properties": {"Block_Name": "Thonoknyu",
   "Dist_Name": "Noklak",
   "State_Name": "Nagaland"}},
 {"type": "Feature",
  "geometry": {"type": "symbol", "coordinates": [94.66, 26.766]},
  "properties": {"Block_Name": "Akuhaito",
   "Dist_Name": "Zunheboto",
   "State_Name": "Nagaland"}},
 {"type": "Feature",
  "geometry": {"type": "symbol", "coordinates": [80.882, 17.106]},
  "properties": {"Block_Name": "Gudvella",
   "Dist_Name": "Balangir",
   "State_Name": "Odisha"}},
 {"type": "Feature",
  "geometry": {"type": "symbol", "coordinates": [79.615, 16.566]},
  "properties": {"Block_Name": "Puintala",
   "Dist_Name": "Balangir",
   "State_Name": "Odisha"}},
 {"type": "Feature",
  "geometry": {"type": "symbol", "coordinates": [83.414, 20.611]},
  "properties": {"Block_Name": "Paikamal",
   "Dist_Name": "Bargarh",
   "State_Name": "Odisha"}},
 {"type": "Feature",
  "geometry": {"type": "symbol", "coordinates": [83.582, 20.405]},
  "properties": {"Block_Name": "Kankada Had",
   "Dist_Name": "Dhenkanal",
   "State_Name": "Odisha"}},
 {"type": "Feature",
  "geometry": {"type": "symbol", "coordinates": [83.643, 20.134]},
  "properties": {"Block_Name": "Gumma",
   "Dist_Name": "Gajapati",
   "State_Name": "Odisha"}},
 {"type": "Feature",
  "geometry": {"type": "symbol", "coordinates": [84.412, 20.193]},
  "properties": {"Block_Name": "R. Udaygiri",
   "Dist_Name": "Gajapati",
   "State_Name": "Odisha"}},
 {"type": "Feature",
  "geometry": {"type": "symbol", "coordinates": [84.487, 20.488]},
  "properties": {"Block_Name": "Madanpur Rampur",
   "Dist_Name": "Kalahandi",
   "State_Name": "Odisha"}},
 {"type": "Feature",
  "geometry": {"type": "symbol", "coordinates": [83.889, 20.068]},
  "properties": {"Block_Name": "Thuamul Rampur",
   "Dist_Name": "Kalahandi",
   "State_Name": "Odisha"}},
 {"type": "Feature",
  "geometry": {"type": "symbol", "coordinates": [83.424, 20.048]},
  "properties": {"Block_Name": "Phiringia",
   "Dist_Name": "Kandhamal",
   "State_Name": "Odisha"}},
 {"type": "Feature",
  "geometry": {"type": "symbol", "coordinates": [83.177, 20.075]},
  "properties": {"Block_Name": "Tumudibandh",
   "Dist_Name": "Kandhamal",
   "State_Name": "Odisha"}},
 {"type": "Feature",
  "geometry": {"type": "symbol", "coordinates": [83.185, 20.034]},
  "properties": {"Block_Name": "Banspal",
   "Dist_Name": "Keonjhar",
   "State_Name": "Odisha"}},
 {"type": "Feature",
  "geometry": {"type": "symbol", "coordinates": [83.059, 20.03]},
  "properties": {"Block_Name": "Harichandanpur",
   "Dist_Name": "Keonjhar",
   "State_Name": "Odisha"}},
 {"type": "Feature",
  "geometry": {"type": "symbol", "coordinates": [82.927, 19.603]},
  "properties": {"Block_Name": "Lamtaput",
   "Dist_Name": "Koraput",
   "State_Name": "Odisha"}},
 {"type": "Feature",
  "geometry": {"type": "symbol", "coordinates": [82.855, 19.281]},
  "properties": {"Block_Name": "Laxmipur",
   "Dist_Name": "Koraput",
   "State_Name": "Odisha"}},
 {"type": "Feature",
  "geometry": {"type": "symbol", "coordinates": [82.545, 18.822]},
  "properties": {"Block_Name": "Chitrkonda",
   "Dist_Name": "Malkangiri",
   "State_Name": "Odisha"}},
 {"type": "Feature",
  "geometry": {"type": "symbol", "coordinates": [82.463, 18.6]},
  "properties": {"Block_Name": "Khairaput",
   "Dist_Name": "Malkangiri",
   "State_Name": "Odisha"}},
 {"type": "Feature",
  "geometry": {"type": "symbol", "coordinates": [82.404, 18.56]},
  "properties": {"Block_Name": "Mathili",
   "Dist_Name": "Malkangiri",
   "State_Name": "Odisha"}},
 {"type": "Feature",
  "geometry": {"type": "symbol", "coordinates": [82.465, 18.537]},
  "properties": {"Block_Name": "Joshipur",
   "Dist_Name": "Mayurbhanj",
   "State_Name": "Odisha"}},
 {"type": "Feature",
  "geometry": {"type": "symbol", "coordinates": [82.711, 18.343]},
  "properties": {"Block_Name": "Thakurmunda",
   "Dist_Name": "Mayurbhanj",
   "State_Name": "Odisha"}},
 {"type": "Feature",
  "geometry": {"type": "symbol", "coordinates": [82.693, 18.218]},
  "properties": {"Block_Name": "Dabugaon",
   "Dist_Name": "Nabarangapur",
   "State_Name": "Odisha"}},
 {"type": "Feature",
  "geometry": {"type": "symbol", "coordinates": [82.74, 18.157]},
  "properties": {"Block_Name": "Tentulikhunti",
   "Dist_Name": "Nabarangapur",
   "State_Name": "Odisha"}},
 {"type": "Feature",
  "geometry": {"type": "symbol", "coordinates": [85.032, 20.395]},
  "properties": {"Block_Name": "Dasapalla",
   "Dist_Name": "Nayagarh",
   "State_Name": "Odisha"}},
 {"type": "Feature",
  "geometry": {"type": "symbol", "coordinates": [84.963, 21.389]},
  "properties": {"Block_Name": "Boden",
   "Dist_Name": "Nuapada",
   "State_Name": "Odisha"}},
 {"type": "Feature",
  "geometry": {"type": "symbol", "coordinates": [83.932, 20.879]},
  "properties": {"Block_Name": "Komna",
   "Dist_Name": "Nuapada",
   "State_Name": "Odisha"}},
 {"type": "Feature",
  "geometry": {"type": "symbol", "coordinates": [83.767, 19.617]},
  "properties": {"Block_Name": "Muniguda",
   "Dist_Name": "Raygada",
   "State_Name": "Odisha"}},
 {"type": "Feature",
  "geometry": {"type": "symbol", "coordinates": [83.064, 20.962]},
  "properties": {"Block_Name": "Padmapur",
   "Dist_Name": "Raygada",
   "State_Name": "Odisha"}},
 {"type": "Feature",
  "geometry": {"type": "symbol", "coordinates": [83.725, 20.885]},
  "properties": {"Block_Name": "Naktideol",
   "Dist_Name": "Sambalpur",
   "State_Name": "Odisha"}},
 {"type": "Feature",
  "geometry": {"type": "symbol", "coordinates": [83.423, 20.803]},
  "properties": {"Block_Name": "Balisankara",
   "Dist_Name": "Sundargarh",
   "State_Name": "Odisha"}},
 {"type": "Feature",
  "geometry": {"type": "symbol", "coordinates": [83.884, 20.617]},
  "properties": {"Block_Name": "Nuagaon",
   "Dist_Name": "Sundargarh",
   "State_Name": "Odisha"}},
 {"type": "Feature",
  "geometry": {"type": "symbol", "coordinates": [74.866, 31.917]},
  "properties": {"Block_Name": "Ajnala",
   "Dist_Name": "Amritsar",
   "State_Name": "Punjab"}},
 {"type": "Feature",
  "geometry": {"type": "symbol", "coordinates": [74.96, 31.827]},
  "properties": {"Block_Name": "Harshe Chhina",
   "Dist_Name": "Amritsar",
   "State_Name": "Punjab"}},
 {"type": "Feature",
  "geometry": {"type": "symbol", "coordinates": [74.982, 31.034]},
  "properties": {"Block_Name": "Makhu",
   "Dist_Name": "Ferozpur",
   "State_Name": "Punjab"}},
 {"type": "Feature",
  "geometry": {"type": "symbol", "coordinates": [75.03, 32.038]},
  "properties": {"Block_Name": "Dera Baba Nanak",
   "Dist_Name": "Gurdaspur",
   "State_Name": "Punjab"}},
 {"type": "Feature",
  "geometry": {"type": "symbol", "coordinates": [75.37, 31.024]},
  "properties": {"Block_Name": "Kalanaur",
   "Dist_Name": "Gurdaspur",
   "State_Name": "Punjab"}},
 {"type": "Feature",
  "geometry": {"type": "symbol", "coordinates": [75.337, 31.108]},
  "properties": {"Block_Name": "Shahkot",
   "Dist_Name": "Jalandhar",
   "State_Name": "Punjab"}},
 {"type": "Feature",
  "geometry": {"type": "symbol", "coordinates": [75.534, 31.327]},
  "properties": {"Block_Name": "Dhilwan",
   "Dist_Name": "Kapurthala",
   "State_Name": "Punjab"}},
 {"type": "Feature",
  "geometry": {"type": "symbol", "coordinates": [75.196, 31.219]},
  "properties": {"Block_Name": "Sultanpur Lodhi",
   "Dist_Name": "Kapurthala",
   "State_Name": "Punjab"}},
 {"type": "Feature",
  "geometry": {"type": "symbol", "coordinates": [75.031, 30.885]},
  "properties": {"Block_Name": "Nihal Singh Wala",
   "Dist_Name": "Moga",
   "State_Name": "Punjab"}},
 {"type": "Feature",
  "geometry": {"type": "symbol", "coordinates": [75.874, 30.356]},
  "properties": {"Block_Name": "Dhuri",
   "Dist_Name": "Sangrur",
   "State_Name": "Punjab"}},
 {"type": "Feature",
  "geometry": {"type": "symbol", "coordinates": [76.363, 27.994]},
  "properties": {"Block_Name": "Neemrana",
   "Dist_Name": "Alwar",
   "State_Name": "Rajasthan"}},
 {"type": "Feature",
  "geometry": {"type": "symbol", "coordinates": [76.511, 27.563]},
  "properties": {"Block_Name": "Sajjangarh",
   "Dist_Name": "Banswara",
   "State_Name": "Rajasthan"}},
 {"type": "Feature",
  "geometry": {"type": "symbol", "coordinates": [75.889, 26.093]},
  "properties": {"Block_Name": "Kishanganj",
   "Dist_Name": "Baran",
   "State_Name": "Rajasthan"}},
 {"type": "Feature",
  "geometry": {"type": "symbol", "coordinates": [75.293, 26.719]},
  "properties": {"Block_Name": "Ramsar",
   "Dist_Name": "Barmer",
   "State_Name": "Rajasthan"}},
 {"type": "Feature",
  "geometry": {"type": "symbol", "coordinates": [75.953, 26.89]},
  "properties": {"Block_Name": "Weir",
   "Dist_Name": "Bharatpur",
   "State_Name": "Rajasthan"}},
 {"type": "Feature",
  "geometry": {"type": "symbol", "coordinates": [75.853, 25.112]},
  "properties": {"Block_Name": "Kotri",
   "Dist_Name": "Bhilwara",
   "State_Name": "Rajasthan"}},
 {"type": "Feature",
  "geometry": {"type": "symbol", "coordinates": [72.702, 27.153]},
  "properties": {"Block_Name": "Kolayat",
   "Dist_Name": "Bikaner",
   "State_Name": "Rajasthan"}},
 {"type": "Feature",
  "geometry": {"type": "symbol", "coordinates": [76.775, 24.844]},
  "properties": {"Block_Name": "Keshoraipatan",
   "Dist_Name": "Bundi",
   "State_Name": "Rajasthan"}},
 {"type": "Feature",
  "geometry": {"type": "symbol", "coordinates": [74.676, 24.618]},
  "properties": {"Block_Name": "Nimbhahera",
   "Dist_Name": "Chittorgarh",
   "State_Name": "Rajasthan"}},
 {"type": "Feature",
  "geometry": {"type": "symbol", "coordinates": [75.379, 28.307]},
  "properties": {"Block_Name": "Rajgarh",
   "Dist_Name": "Churu",
   "State_Name": "Rajasthan"}},
 {"type": "Feature",
  "geometry": {"type": "symbol", "coordinates": [86.394, 24.565]},
  "properties": {"Block_Name": "Ramgarh Pachwara",
   "Dist_Name": "Dausa",
   "State_Name": "Rajasthan"}},
 {"type": "Feature",
  "geometry": {"type": "symbol", "coordinates": [76.084, 26.593]},
  "properties": {"Block_Name": "Baseri",
   "Dist_Name": "Dholpur",
   "State_Name": "Rajasthan"}},
 {"type": "Feature",
  "geometry": {"type": "symbol", "coordinates": [76.513, 25.261]},
  "properties": {"Block_Name": "Jothari",
   "Dist_Name": "Dungarpur",
   "State_Name": "Rajasthan"}},
 {"type": "Feature",
  "geometry": {"type": "symbol", "coordinates": [74.474, 29.802]},
  "properties": {"Block_Name": "Sangaria",
   "Dist_Name": "Hanumangarh",
   "State_Name": "Rajasthan"}},
 {"type": "Feature",
  "geometry": {"type": "symbol", "coordinates": [74.504, 30.161]},
  "properties": {"Block_Name": "Fathegarh",
   "Dist_Name": "Jaisalmer",
   "State_Name": "Rajasthan"}},
 {"type": "Feature",
  "geometry": {"type": "symbol", "coordinates": [72.156, 25.169]},
  "properties": {"Block_Name": "Ahore",
   "Dist_Name": "Jalore",
   "State_Name": "Rajasthan"}},
 {"type": "Feature",
  "geometry": {"type": "symbol", "coordinates": [72.764, 24.769]},
  "properties": {"Block_Name": "Khanpur",
   "Dist_Name": "Jhalawar",
   "State_Name": "Rajasthan"}},
 {"type": "Feature",
  "geometry": {"type": "symbol", "coordinates": [72.93, 26.418]},
  "properties": {"Block_Name": "Shergarh",
   "Dist_Name": "Jodhpur",
   "State_Name": "Rajasthan"}},
 {"type": "Feature",
  "geometry": {"type": "symbol", "coordinates": [73.104, 26.589]},
  "properties": {"Block_Name": "Masalpur",
   "Dist_Name": "Karauli",
   "State_Name": "Rajasthan"}},
 {"type": "Feature",
  "geometry": {"type": "symbol", "coordinates": [73.557, 25.297]},
  "properties": {"Block_Name": "Jayal",
   "Dist_Name": "Nagaur",
   "State_Name": "Rajasthan"}},
 {"type": "Feature",
  "geometry": {"type": "symbol", "coordinates": [73.306, 25.246]},
  "properties": {"Block_Name": "Rani Station",
   "Dist_Name": "Pali",
   "State_Name": "Rajasthan"}},
 {"type": "Feature",
  "geometry": {"type": "symbol", "coordinates": [73.252, 26.56]},
  "properties": {"Block_Name": "Peepal Khoont",
   "Dist_Name": "Pratapgarh",
   "State_Name": "Rajasthan"}},
 {"type": "Feature",
  "geometry": {"type": "symbol", "coordinates": [73.9, 25.65]},
  "properties": {"Block_Name": "Bhim",
   "Dist_Name": "Rajsamand",
   "State_Name": "Rajasthan"}},
 {"type": "Feature",
  "geometry": {"type": "symbol", "coordinates": [76.712, 26.477]},
  "properties": {"Block_Name": "Gangapur City",
   "Dist_Name": "S. Madhopur",
   "State_Name": "Rajasthan"}},
 {"type": "Feature",
  "geometry": {"type": "symbol", "coordinates": [72.78, 24.487]},
  "properties": {"Block_Name": "Abu Road",
   "Dist_Name": "Sirohi",
   "State_Name": "Rajasthan"}},
 {"type": "Feature",
  "geometry": {"type": "symbol", "coordinates": [76.211, 25.9]},
  "properties": {"Block_Name": "Peeplu",
   "Dist_Name": "Tonk",
   "State_Name": "Rajasthan"}},
 {"type": "Feature",
  "geometry": {"type": "symbol", "coordinates": [73.231, 24.992]},
  "properties": {"Block_Name": "Kherwara",
   "Dist_Name": "Udaipur",
   "State_Name": "Rajasthan"}},
 {"type": "Feature",
  "geometry": {"type": "symbol", "coordinates": [88.606, 27.188]},
  "properties": {"Block_Name": "Arithang Chongrang",
   "Dist_Name": "Gyalshing",
   "State_Name": "Sikkim"}},
 {"type": "Feature",
  "geometry": {"type": "symbol", "coordinates": [88.358, 27.172]},
  "properties": {"Block_Name": "Namchi",
   "Dist_Name": "Namchi",
   "State_Name": "Sikkim"}},
 {"type": "Feature",
  "geometry": {"type": "symbol", "coordinates": [88.353, 27.223]},
  "properties": {"Block_Name": "Chumbong Chakung",
   "Dist_Name": "Soreng",
   "State_Name": "Sikkim"}},
 {"type": "Feature",
  "geometry": {"type": "symbol", "coordinates": [77.218, 11.272]},
  "properties": {"Block_Name": "Andimadam",
   "Dist_Name": "Ariyalur",
   "State_Name": "Tamil Nadu"}},
 {"type": "Feature",
  "geometry": {"type": "symbol", "coordinates": [78.29, 11.853]},
  "properties": {"Block_Name": "Kalvarayan Hills",
   "Dist_Name": "Kallakurichi",
   "State_Name": "Tamil Nadu"}},
 {"type": "Feature",
  "geometry": {"type": "symbol", "coordinates": [78.672, 10.26]},
  "properties": {"Block_Name": "Thogaimalai",
   "Dist_Name": "Karur",
   "State_Name": "Tamil Nadu"}},
 {"type": "Feature",
  "geometry": {"type": "symbol", "coordinates": [78.126, 10.906]},
  "properties": {"Block_Name": "Alathur",
   "Dist_Name": "Perambalur",
   "State_Name": "Tamil Nadu"}},
 {"type": "Feature",
  "geometry": {"type": "symbol", "coordinates": [78.408, 10.499]},
  "properties": {"Block_Name": "Thiruvarankulam",
   "Dist_Name": "Pudhukottai",
   "State_Name": "Tamil Nadu"}},
 {"type": "Feature",
  "geometry": {"type": "symbol", "coordinates": [78.601, 9.903]},
  "properties": {"Block_Name": "Thiruvadanai",
   "Dist_Name": "Ramanathapuram",
   "State_Name": "Tamil Nadu"}},
 {"type": "Feature",
  "geometry": {"type": "symbol", "coordinates": [79.155, 10.664]},
  "properties": {"Block_Name": "Timri",
   "Dist_Name": "Ranipet",
   "State_Name": "Tamil Nadu"}},
 {"type": "Feature",
  "geometry": {"type": "symbol", "coordinates": [78.57, 9.23]},
  "properties": {"Block_Name": "Thirupathur",
   "Dist_Name": "Sivaganga",
   "State_Name": "Tamil Nadu"}},
 {"type": "Feature",
  "geometry": {"type": "symbol", "coordinates": [76.864, 11.399]},
  "properties": {"Block_Name": "Kothagiri",
   "Dist_Name": "The Nilgiris",
   "State_Name": "Tamil Nadu"}},
 {"type": "Feature",
  "geometry": {"type": "symbol", "coordinates": [77.588, 9.259]},
  "properties": {"Block_Name": "Melaneelithanallur",
   "Dist_Name": "Tenkasi",
   "State_Name": "Tamil Nadu"}},
 {"type": "Feature",
  "geometry": {"type": "symbol", "coordinates": [78.583, 12.376]},
  "properties": {"Block_Name": "Jawathu Hills",
   "Dist_Name": "Thiruvannamalai",
   "State_Name": "Tamil Nadu"}},
 {"type": "Feature",
  "geometry": {"type": "symbol", "coordinates": [78.802, 11.144]},
  "properties": {"Block_Name": "Turaiyur",
   "Dist_Name": "Tiruchirappalli",
   "State_Name": "Tamil Nadu"}},
 {"type": "Feature",
  "geometry": {"type": "symbol", "coordinates": [77.618, 8.373]},
  "properties": {"Block_Name": "Nanguneri",
   "Dist_Name": "Tirunelveli",
   "State_Name": "Tamil Nadu"}},
 {"type": "Feature",
  "geometry": {"type": "symbol", "coordinates": [78.346, 9.207]},
  "properties": {"Block_Name": "K.V.Kuppam",
   "Dist_Name": "Vellore",
   "State_Name": "Tamil Nadu"}},
 {"type": "Feature",
  "geometry": {"type": "symbol", "coordinates": [79.351, 12.079]},
  "properties": {"Block_Name": "Thiruvennainallur",
   "Dist_Name": "Villupuram",
   "State_Name": "Tamil Nadu"}},
 {"type": "Feature",
  "geometry": {"type": "symbol", "coordinates": [77.927, 9.86]},
  "properties": {"Block_Name": "Tiruchuli",
   "Dist_Name": "Virudhunagar",
   "State_Name": "Tamil Nadu"}},
 {"type": "Feature",
  "geometry": {"type": "symbol", "coordinates": [77.186, 18.849]},
  "properties": {"Block_Name": "Narnoor",
   "Dist_Name": "Adilabad",
   "State_Name": "Telangana"}},
 {"type": "Feature",
  "geometry": {"type": "symbol", "coordinates": [77.101, 18.348]},
  "properties": {"Block_Name": "Gundala",
   "Dist_Name": "Bhadradri-Kothagudem",
   "State_Name": "Telangana"}},
 {"type": "Feature",
  "geometry": {"type": "symbol", "coordinates": [79.404, 18.594]},
  "properties": {"Block_Name": "Mutharam (Mahadevpur)",
   "Dist_Name": "Jayashankar Bhupalapally",
   "State_Name": "Telangana"}},
 {"type": "Feature",
  "geometry": {"type": "symbol", "coordinates": [82.273, 18.877]},
  "properties": {"Block_Name": "Palimela",
   "Dist_Name": "Jayashankar Bhupalapally",
   "State_Name": "Telangana"}},
 {"type": "Feature",
  "geometry": {"type": "symbol", "coordinates": [82.847, 18.609]},
  "properties": {"Block_Name": "Ghattu",
   "Dist_Name": "Jogulamba Gadwal",
   "State_Name": "Telangana"}},
 {"type": "Feature",
  "geometry": {"type": "symbol", "coordinates": [83.411, 18.464]},
  "properties": {"Block_Name": "Tiriyani",
   "Dist_Name": "Kumuram Bheem -Asifabad",
   "State_Name": "Telangana"}},
 {"type": "Feature",
  "geometry": {"type": "symbol", "coordinates": [83.768, 18.352]},
  "properties": {"Block_Name": "Gangaram",
   "Dist_Name": "Mahabubabad",
   "State_Name": "Telangana"}},
 {"type": "Feature",
  "geometry": {"type": "symbol", "coordinates": [80.016, 18.605]},
  "properties": {"Block_Name": "Kannaigudem",
   "Dist_Name": "Mulugu",
   "State_Name": "Telangana"}},
 {"type": "Feature",
  "geometry": {"type": "symbol", "coordinates": [80.004, 18.615]},
  "properties": {"Block_Name": "Narva",
   "Dist_Name": "Narayanpet",
   "State_Name": "Telangana"}},
 {"type": "Feature",
  "geometry": {"type": "symbol", "coordinates": [79.831, 18.502]},
  "properties": {"Block_Name": "Pembi",
   "Dist_Name": "Nirmal",
   "State_Name": "Telangana"}},
 {"type": "Feature",
  "geometry": {"type": "symbol", "coordinates": [79.89, 18.283]},
  "properties": {"Block_Name": "Ganganagar",
   "Dist_Name": "Dhalai",
   "State_Name": "Tripura"}},
 {"type": "Feature",
  "geometry": {"type": "symbol", "coordinates": [92.612, 23.793]},
  "properties": {"Block_Name": "Damcherra",
   "Dist_Name": "North Tripura",
   "State_Name": "Tripura"}},
 {"type": "Feature",
  "geometry": {"type": "symbol", "coordinates": [92.34, 23.814]},
  "properties": {"Block_Name": "Dasda",
   "Dist_Name": "North Tripura",
   "State_Name": "Tripura"}},
 {"type": "Feature",
  "geometry": {"type": "symbol", "coordinates": [92.519, 23.775]},
  "properties": {"Block_Name": "Gangiri",
   "Dist_Name": "Aligarh",
   "State_Name": "Uttar Pradesh"}},
 {"type": "Feature",
  "geometry": {"type": "symbol", "coordinates": [92.21, 23.764]},
  "properties": {"Block_Name": "Bhiti",
   "Dist_Name": "Ambedkar Nagar",
   "State_Name": "Uttar Pradesh"}},
 {"type": "Feature",
  "geometry": {"type": "symbol", "coordinates": [91.983, 23.666]},
  "properties": {"Block_Name": "Bhiyawn",
   "Dist_Name": "Ambedkar Nagar",
   "State_Name": "Uttar Pradesh"}},
 {"type": "Feature",
  "geometry": {"type": "symbol", "coordinates": [92.08, 23.646]},
  "properties": {"Block_Name": "Tanda",
   "Dist_Name": "Ambedkar Nagar",
   "State_Name": "Uttar Pradesh"}},
 {"type": "Feature",
  "geometry": {"type": "symbol", "coordinates": [92.439, 23.843]},
  "properties": {"Block_Name": "Jagdishpur",
   "Dist_Name": "Amethi",
   "State_Name": "Uttar Pradesh"}},
 {"type": "Feature",
  "geometry": {"type": "symbol", "coordinates": [91.998, 23.79]},
  "properties": {"Block_Name": "Jamo",
   "Dist_Name": "Amethi",
   "State_Name": "Uttar Pradesh"}},
 {"type": "Feature",
  "geometry": {"type": "symbol", "coordinates": [92.144, 23.808]},
  "properties": {"Block_Name": "Shukul Bazar",
   "Dist_Name": "Amethi",
   "State_Name": "Uttar Pradesh"}},
 {"type": "Feature",
  "geometry": {"type": "symbol", "coordinates": [92.253, 23.769]},
  "properties": {"Block_Name": "Huzoorpur",
   "Dist_Name": "Bahraich",
   "State_Name": "Uttar Pradesh"}},
 {"type": "Feature",
  "geometry": {"type": "symbol", "coordinates": [92.2, 23.724]},
  "properties": {"Block_Name": "Bansdih",
   "Dist_Name": "Ballia",
   "State_Name": "Uttar Pradesh"}},
 {"type": "Feature",
  "geometry": {"type": "symbol", "coordinates": [92.047, 23.686]},
  "properties": {"Block_Name": "Chilkahar",
   "Dist_Name": "Ballia",
   "State_Name": "Uttar Pradesh"}},
 {"type": "Feature",
  "geometry": {"type": "symbol", "coordinates": [92.394, 23.732]},
  "properties": {"Block_Name": "Shriduttganj",
   "Dist_Name": "Balrampur",
   "State_Name": "Uttar Pradesh"}},
 {"type": "Feature",
  "geometry": {"type": "symbol", "coordinates": [80.608, 25.862]},
  "properties": {"Block_Name": "Baberu",
   "Dist_Name": "Banda",
   "State_Name": "Uttar Pradesh"}},
 {"type": "Feature",
  "geometry": {"type": "symbol", "coordinates": [80.694, 25.656]},
  "properties": {"Block_Name": "Bisanda",
   "Dist_Name": "Banda",
   "State_Name": "Uttar Pradesh"}},
 {"type": "Feature",
  "geometry": {"type": "symbol", "coordinates": [81.071, 25.634]},
  "properties": {"Block_Name": "Nindaura",
   "Dist_Name": "Barabanki",
   "State_Name": "Uttar Pradesh"}},
 {"type": "Feature",
  "geometry": {"type": "symbol", "coordinates": [81.263, 25.964]},
  "properties": {"Block_Name": "Puredalai",
   "Dist_Name": "Barabanki",
   "State_Name": "Uttar Pradesh"}},
 {"type": "Feature",
  "geometry": {"type": "symbol", "coordinates": [81.465, 25.882]},
  "properties": {"Block_Name": "Baheri",
   "Dist_Name": "Bareilly",
   "State_Name": "Uttar Pradesh"}},
 {"type": "Feature",
  "geometry": {"type": "symbol", "coordinates": [81.601, 25.525]},
  "properties": {"Block_Name": "Fatehganj (West)",
   "Dist_Name": "Bareilly",
   "State_Name": "Uttar Pradesh"}},
 {"type": "Feature",
  "geometry": {"type": "symbol", "coordinates": [81.678, 26.018]},
  "properties": {"Block_Name": "Damkhauda",
   "Dist_Name": "Bareilly",
   "State_Name": "Uttar Pradesh"}},
 {"type": "Feature",
  "geometry": {"type": "symbol", "coordinates": [81.918, 26.072]},
  "properties": {"Block_Name": "Harraiya",
   "Dist_Name": "Basti",
   "State_Name": "Uttar Pradesh"}},
 {"type": "Feature",
  "geometry": {"type": "symbol", "coordinates": [81.844, 26.209]},
  "properties": {"Block_Name": "Kudaraha",
   "Dist_Name": "Basti",
   "State_Name": "Uttar Pradesh"}},
 {"type": "Feature",
  "geometry": {"type": "symbol", "coordinates": [82.076, 26.219]},
  "properties": {"Block_Name": "Kotwali",
   "Dist_Name": "Bijanaur",
   "State_Name": "Uttar Pradesh"}},
 {"type": "Feature",
  "geometry": {"type": "symbol", "coordinates": [78.343, 29.61]},
  "properties": {"Block_Name": "Najibabad",
   "Dist_Name": "Bijanaur",
   "State_Name": "Uttar Pradesh"}},
 {"type": "Feature",
  "geometry": {"type": "symbol", "coordinates": [78.379, 29.512]},
  "properties": {"Block_Name": "Ambiapur",
   "Dist_Name": "Budaun",
   "State_Name": "Uttar Pradesh"}},
 {"type": "Feature",
  "geometry": {"type": "symbol", "coordinates": [78.11, 29.659]},
  "properties": {"Block_Name": "Asafpur",
   "Dist_Name": "Budaun",
   "State_Name": "Uttar Pradesh"}},
 {"type": "Feature",
  "geometry": {"type": "symbol", "coordinates": [78.178, 29.386]},
  "properties": {"Block_Name": "Chahniya",
   "Dist_Name": "Chandauli",
   "State_Name": "Uttar Pradesh"}},
 {"type": "Feature",
  "geometry": {"type": "symbol", "coordinates": [78.406, 29.399]},
  "properties": {"Block_Name": "Ramnagar",
   "Dist_Name": "Chitrakoot",
   "State_Name": "Uttar Pradesh"}},
 {"type": "Feature",
  "geometry": {"type": "symbol", "coordinates": [78.538, 29.229]},
  "properties": {"Block_Name": "Gauri Bazar",
   "Dist_Name": "Deoria",
   "State_Name": "Uttar Pradesh"}},
 {"type": "Feature",
  "geometry": {"type": "symbol", "coordinates": [78.57, 27.612]},
  "properties": {"Block_Name": "Awagarh",
   "Dist_Name": "Etah",
   "State_Name": "Uttar Pradesh"}},
 {"type": "Feature",
  "geometry": {"type": "symbol", "coordinates": [78.533, 27.507]},
  "properties": {"Block_Name": "Jaithra",
   "Dist_Name": "Etah",
   "State_Name": "Uttar Pradesh"}},
 {"type": "Feature",
  "geometry": {"type": "symbol", "coordinates": [79.567, 27.271]},
  "properties": {"Block_Name": "Nawabganj",
   "Dist_Name": "Farrukhabad",
   "State_Name": "Uttar Pradesh"}},
 {"type": "Feature",
  "geometry": {"type": "symbol", "coordinates": [79.472, 27.632]},
  "properties": {"Block_Name": "Rajepur",
   "Dist_Name": "Farrukhabad",
   "State_Name": "Uttar Pradesh"}},
 {"type": "Feature",
  "geometry": {"type": "symbol", "coordinates": [79.805, 27.911]},
  "properties": {"Block_Name": "Hathgaon",
   "Dist_Name": "Fatehpur",
   "State_Name": "Uttar Pradesh"}},
 {"type": "Feature",
  "geometry": {"type": "symbol", "coordinates": [80.06, 27.189]},
  "properties": {"Block_Name": "Varachakwar",
   "Dist_Name": "Ghazipur",
   "State_Name": "Uttar Pradesh"}},
 {"type": "Feature",
  "geometry": {"type": "symbol", "coordinates": [80.334, 27.736]},
  "properties": {"Block_Name": "Virno",
   "Dist_Name": "Ghazipur",
   "State_Name": "Uttar Pradesh"}},
 {"type": "Feature",
  "geometry": {"type": "symbol", "coordinates": [80.614, 27.94]},
  "properties": {"Block_Name": "Rupaideeh",
   "Dist_Name": "Gonda",
   "State_Name": "Uttar Pradesh"}},
 {"type": "Feature",
  "geometry": {"type": "symbol", "coordinates": [80.629, 28.037]},
  "properties": {"Block_Name": "Babhanjot",
   "Dist_Name": "Gonda",
   "State_Name": "Uttar Pradesh"}},
 {"type": "Feature",
  "geometry": {"type": "symbol", "coordinates": [81.155, 27.243]},
  "properties": {"Block_Name": "Pandari Kripal",
   "Dist_Name": "Gonda",
   "State_Name": "Uttar Pradesh"}},
 {"type": "Feature",
  "geometry": {"type": "symbol", "coordinates": [81.152, 27.094]},
  "properties": {"Block_Name": "Bansgaon",
   "Dist_Name": "Gorakhpur",
   "State_Name": "Uttar Pradesh"}},
 {"type": "Feature",
  "geometry": {"type": "symbol", "coordinates": [81.335, 27.309]},
  "properties": {"Block_Name": "Brahmpur",
   "Dist_Name": "Gorakhpur",
   "State_Name": "Uttar Pradesh"}},
 {"type": "Feature",
  "geometry": {"type": "symbol", "coordinates": [80.108, 26.625]},
  "properties": {"Block_Name": "Sandila",
   "Dist_Name": "Hardoi",
   "State_Name": "Uttar Pradesh"}},
 {"type": "Feature",
  "geometry": {"type": "symbol", "coordinates": [79.341, 26.153]},
  "properties": {"Block_Name": "Jalaun",
   "Dist_Name": "Jalaun",
   "State_Name": "Uttar Pradesh"}},
 {"type": "Feature",
  "geometry": {"type": "symbol", "coordinates": [79.295, 25.579]},
  "properties": {"Block_Name": "Rampura",
   "Dist_Name": "Jalaun",
   "State_Name": "Uttar Pradesh"}},
 {"type": "Feature",
  "geometry": {"type": "symbol", "coordinates": [79.147, 25.632]},
  "properties": {"Block_Name": "Machhali Sahar",
   "Dist_Name": "Jaunpur",
   "State_Name": "Uttar Pradesh"}},
 {"type": "Feature",
  "geometry": {"type": "symbol", "coordinates": [79.438, 25.458]},
  "properties": {"Block_Name": "Ram Pur",
   "Dist_Name": "Jaunpur",
   "State_Name": "Uttar Pradesh"}},
 {"type": "Feature",
  "geometry": {"type": "symbol", "coordinates": [79.06, 26.012]},
  "properties": {"Block_Name": "Amanpur",
   "Dist_Name": "Kasganj",
   "State_Name": "Uttar Pradesh"}},
 {"type": "Feature",
  "geometry": {"type": "symbol", "coordinates": [78.974, 27.431]},
  "properties": {"Block_Name": "Ganj Dundwara",
   "Dist_Name": "Kasganj",
   "State_Name": "Uttar Pradesh"}},
 {"type": "Feature",
  "geometry": {"type": "symbol", "coordinates": [81.005, 25.34]},
  "properties": {"Block_Name": "Kaushambi",
   "Dist_Name": "Kaushambi",
   "State_Name": "Uttar Pradesh"}},
 {"type": "Feature",
  "geometry": {"type": "symbol", "coordinates": [81.86, 25.416]},
  "properties": {"Block_Name": "Manjhanpur",
   "Dist_Name": "Kaushambi",
   "State_Name": "Uttar Pradesh"}},
 {"type": "Feature",
  "geometry": {"type": "symbol", "coordinates": [82.417, 25.308]},
  "properties": {"Block_Name": "Bankeyganj",
   "Dist_Name": "Kheri",
   "State_Name": "Uttar Pradesh"}},
 {"type": "Feature",
  "geometry": {"type": "symbol", "coordinates": [82.687, 27.525]},
  "properties": {"Block_Name": "Dhaurhara",
   "Dist_Name": "Kheri",
   "State_Name": "Uttar Pradesh"}},
 {"type": "Feature",
  "geometry": {"type": "symbol", "coordinates": [82.556, 26.66]},
  "properties": {"Block_Name": "Vishunpura",
   "Dist_Name": "Kushi Nagar",
   "State_Name": "Uttar Pradesh"}},
 {"type": "Feature",
  "geometry": {"type": "symbol", "coordinates": [82.842, 27.034]},
  "properties": {"Block_Name": "Mandawra",
   "Dist_Name": "Lalitpur",
   "State_Name": "Uttar Pradesh"}},
 {"type": "Feature",
  "geometry": {"type": "symbol", "coordinates": [79.999, 25.419]},
  "properties": {"Block_Name": "Kabrai",
   "Dist_Name": "Mahoba",
   "State_Name": "Uttar Pradesh"}},
 {"type": "Feature",
  "geometry": {"type": "symbol", "coordinates": [81.352, 27.545]},
  "properties": {"Block_Name": "Mithaura",
   "Dist_Name": "Maharajganj",
   "State_Name": "Uttar Pradesh"}},
 {"type": "Feature",
  "geometry": {"type": "symbol", "coordinates": [83.15, 26.85]},
  "properties": {"Block_Name": "Hallia",
   "Dist_Name": "Mirzapur",
   "State_Name": "Uttar Pradesh"}},
 {"type": "Feature",
  "geometry": {"type": "symbol", "coordinates": [83.486, 27.019]},
  "properties": {"Block_Name": "Patehra",
   "Dist_Name": "Mirzapur",
   "State_Name": "Uttar Pradesh"}},
 {"type": "Feature",
  "geometry": {"type": "symbol", "coordinates": [80.09, 28.375]},
  "properties": {"Block_Name": "Puranpur",
   "Dist_Name": "Pilbhit",
   "State_Name": "Uttar Pradesh"}},
 {"type": "Feature",
  "geometry": {"type": "symbol", "coordinates": [79.846, 28.348]},
  "properties": {"Block_Name": "Baharia",
   "Dist_Name": "Prayagraj",
   "State_Name": "Uttar Pradesh"}},
 {"type": "Feature",
  "geometry": {"type": "symbol", "coordinates": [81.431, 26.005]},
  "properties": {"Block_Name": "Koraon",
   "Dist_Name": "Prayagraj",
   "State_Name": "Uttar Pradesh"}},
 {"type": "Feature",
  "geometry": {"type": "symbol", "coordinates": [81.616, 25.992]},
  "properties": {"Block_Name": "Saidnagar",
   "Dist_Name": "Rampur",
   "State_Name": "Uttar Pradesh"}},
 {"type": "Feature",
  "geometry": {"type": "symbol", "coordinates": [81.566, 26.014]},
  "properties": {"Block_Name": "Asmauli",
   "Dist_Name": "Sambhal",
   "State_Name": "Uttar Pradesh"}},
 {"type": "Feature",
  "geometry": {"type": "symbol", "coordinates": [78.453, 28.074]},
  "properties": {"Block_Name": "Gunnaur",
   "Dist_Name": "Sambhal",
   "State_Name": "Uttar Pradesh"}},
 {"type": "Feature",
  "geometry": {"type": "symbol", "coordinates": [78.232, 28.103]},
  "properties": {"Block_Name": "Jamunaha",
   "Dist_Name": "Shravasti",
   "State_Name": "Uttar Pradesh"}},
 {"type": "Feature",
  "geometry": {"type": "symbol", "coordinates": [79.025, 28.184]},
  "properties": {"Block_Name": "Khesraha",
   "Dist_Name": "Siddharth Nagar",
   "State_Name": "Uttar Pradesh"}},
 {"type": "Feature",
  "geometry": {"type": "symbol", "coordinates": [81.003, 27.424]},
  "properties": {"Block_Name": "Biswan",
   "Dist_Name": "Sitapur",
   "State_Name": "Uttar Pradesh"}},
 {"type": "Feature",
  "geometry": {"type": "symbol", "coordinates": [81.059, 26.108]},
  "properties": {"Block_Name": "Chatra",
   "Dist_Name": "Sonbhadra",
   "State_Name": "Uttar Pradesh"}},
 {"type": "Feature",
  "geometry": {"type": "symbol", "coordinates": [81.956, 27.53]},
  "properties": {"Block_Name": "Baghauli",
   "Dist_Name": "St Kabir Nagar",
   "State_Name": "Uttar Pradesh"}},
 {"type": "Feature",
  "geometry": {"type": "symbol", "coordinates": [83.097, 26.155]},
  "properties": {"Block_Name": "Aurai",
   "Dist_Name": "St Ravidas Nagar",
   "State_Name": "Uttar Pradesh"}},
 {"type": "Feature",
  "geometry": {"type": "symbol", "coordinates": [82.842, 25.996]},
  "properties": {"Block_Name": "Syaldey",
   "Dist_Name": "Almora",
   "State_Name": "Uttarakhand"}},
 {"type": "Feature",
  "geometry": {"type": "symbol", "coordinates": [81.376, 26.263]},
  "properties": {"Block_Name": "Kapkote",
   "Dist_Name": "Bageshwar",
   "State_Name": "Uttarakhand"}},
 {"type": "Feature",
  "geometry": {"type": "symbol", "coordinates": [78.116, 29.931]},
  "properties": {"Block_Name": "Bahadrabad",
   "Dist_Name": "Haridwar",
   "State_Name": "Uttarakhand"}},
 {"type": "Feature",
  "geometry": {"type": "symbol", "coordinates": [78.151, 29.968]},
  "properties": {"Block_Name": "Duggada",
   "Dist_Name": "Pauri Garhwal",
   "State_Name": "Uttarakhand"}},
 {"type": "Feature",
  "geometry": {"type": "symbol", "coordinates": [79.476, 29.378]},
  "properties": {"Block_Name": "Gadarpur",
   "Dist_Name": "Udam Singh Nagar",
   "State_Name": "Uttarakhand"}},
 {"type": "Feature",
  "geometry": {"type": "symbol", "coordinates": [79.678, 30.163]},
  "properties": {"Block_Name": "Mori",
   "Dist_Name": "Uttar Kashi",
   "State_Name": "Uttarakhand"}},
 {"type": "Feature",
  "geometry": {"type": "symbol", "coordinates": [79.073, 29.577]},
  "properties": {"Block_Name": "Indpur",
   "Dist_Name": "Bankura",
   "State_Name": "West Bengal"}},
 {"type": "Feature",
  "geometry": {"type": "symbol", "coordinates": [86.866, 22.87]},
  "properties": {"Block_Name": "Khatra-1",
   "Dist_Name": "Bankura",
   "State_Name": "West Bengal"}},
 {"type": "Feature",
  "geometry": {"type": "symbol", "coordinates": [87.168, 22.428]},
  "properties": {"Block_Name": "Onda",
   "Dist_Name": "Bankura",
   "State_Name": "West Bengal"}},
 {"type": "Feature",
  "geometry": {"type": "symbol", "coordinates": [87.069, 23.72]},
  "properties": {"Block_Name": "Khoyrasol",
   "Dist_Name": "Birbhum",
   "State_Name": "West Bengal"}},
 {"type": "Feature",
  "geometry": {"type": "symbol", "coordinates": [87.812, 24.258]},
  "properties": {"Block_Name": "Mayureswar-1",
   "Dist_Name": "Birbhum",
   "State_Name": "West Bengal"}},
 {"type": "Feature",
  "geometry": {"type": "symbol", "coordinates": [87.528, 23.62]},
  "properties": {"Block_Name": "Nanoor",
   "Dist_Name": "Birbhum",
   "State_Name": "West Bengal"}},
 {"type": "Feature",
  "geometry": {"type": "symbol", "coordinates": [88.173, 23.947]},
  "properties": {"Block_Name": "Kumarganj",
   "Dist_Name": "Dinajpur Dakshin ",
   "State_Name": "West Bengal"}},
 {"type": "Feature",
  "geometry": {"type": "symbol", "coordinates": [86.898, 22.598]},
  "properties": {"Block_Name": "Binpur-1",
   "Dist_Name": "Jhargram",
   "State_Name": "West Bengal"}},
 {"type": "Feature",
  "geometry": {"type": "symbol", "coordinates": [86.898, 22.598]},
  "properties": {"Block_Name": "Binpur-2",
   "Dist_Name": "Jhargram",
   "State_Name": "West Bengal"}},
 {"type": "Feature",
  "geometry": {"type": "symbol", "coordinates": [86.884, 22.445]},
  "properties": {"Block_Name": "Gopiballavpur-1",
   "Dist_Name": "Jhargram",
   "State_Name": "West Bengal"}},
 {"type": "Feature",
  "geometry": {"type": "symbol", "coordinates": [86.884, 22.445]},
  "properties": {"Block_Name": "Gopiballavpur-2",
   "Dist_Name": "Jhargram",
   "State_Name": "West Bengal"}},
 {"type": "Feature",
  "geometry": {"type": "symbol", "coordinates": [88.929, 25.2]},
  "properties": {"Block_Name": "Chanchal-1",
   "Dist_Name": "Maldah",
   "State_Name": "West Bengal"}},
 {"type": "Feature",
  "geometry": {"type": "symbol", "coordinates": [88.777, 25.255]},
  "properties": {"Block_Name": "Habibpur",
   "Dist_Name": "Maldah",
   "State_Name": "West Bengal"}},
 {"type": "Feature",
  "geometry": {"type": "symbol", "coordinates": [88.782, 25.115]},
  "properties": {"Block_Name": "Harishchandrapur-2",
   "Dist_Name": "Maldah",
   "State_Name": "West Bengal"}},
 {"type": "Feature",
  "geometry": {"type": "symbol", "coordinates": [88.224, 24.375]},
  "properties": {"Block_Name": "Bhagabangola-1",
   "Dist_Name": "Murshidabad",
   "State_Name": "West Bengal"}},
 {"type": "Feature",
  "geometry": {"type": "symbol", "coordinates": [88.301, 24.42]},
  "properties": {"Block_Name": "Lalgola",
   "Dist_Name": "Murshidabad",
   "State_Name": "West Bengal"}},
 {"type": "Feature",
  "geometry": {"type": "symbol", "coordinates": [87.432, 21.811]},
  "properties": {"Block_Name": "Keshiary",
   "Dist_Name": "Medinipur West",
   "State_Name": "West Bengal"}},
 {"type": "Feature",
  "geometry": {"type": "symbol", "coordinates": [87.571, 21.967]},
  "properties": {"Block_Name": "Salbani",
   "Dist_Name": "Medinipur West",
   "State_Name": "West Bengal"}},
 {"type": "Feature",
  "geometry": {"type": "symbol", "coordinates": [87.179, 22.424]},
  "properties": {"Block_Name": "Balarampur",
   "Dist_Name": "Purulia",
   "State_Name": "West Bengal"}},
 {"type": "Feature",
  "geometry": {"type": "symbol", "coordinates": [87.667, 22.319]},
  "properties": {"Block_Name": "Hura",
   "Dist_Name": "Purulia",
   "State_Name": "West Bengal"}},
 {"type": "Feature",
  "geometry": {"type": "symbol", "coordinates": [87.419, 21.891]},
  "properties": {"Block_Name": "Kashipur",
   "Dist_Name": "Purulia",
   "State_Name": "West Bengal"}},
 {"type": "Feature",
  "geometry": {"type": "symbol", "coordinates": [88.139, 24.498]},
  "properties": {"Block_Name": "Magra Hat-2",
   "Dist_Name": "24 Paraganas South ",
   "State_Name": "West Bengal"}},
 {"type": "Feature",
  "geometry": {"type": "symbol", "coordinates": [88.288, 22.476]},
  "properties": {"Block_Name": "Thakurpukur Mahestola",
   "Dist_Name": "24 Paraganas South ",
   "State_Name": "West Bengal"}},
 {"type": "Feature",
  "geometry": {"type": "symbol", "coordinates": [88.835, 25.776]},
  "properties": {"Block_Name": "Chopra",
   "Dist_Name": "Dinajpur Uttar ",
   "State_Name": "West Bengal"}},
 {"type": "Feature",
  "geometry": {"type": "symbol", "coordinates": [88.971, 25.577]},
  "properties": {"Block_Name": "Goalpokher-1",
   "Dist_Name": "Dinajpur Uttar ",
   "State_Name": "West Bengal"}},
 {"type": "Feature",
  "geometry": {"type": "symbol", "coordinates": [88.971, 25.577]},
  "properties": {"Block_Name": "Goalpokher-2",
   "Dist_Name": "Dinajpur Uttar ",
   "State_Name": "West Bengal"}},
 {"type": "Feature",
  "geometry": {"type": "symbol", "coordinates": [89.027, 25.857]},
  "properties": {"Block_Name": "Hemtabad",
   "Dist_Name": "Dinajpur Uttar ",
   "State_Name": "West Bengal"}},
 {"type": "Feature",
  "geometry": {"type": "symbol", "coordinates": [88.207, 26.278]},
  "properties": {"Block_Name": "Islampur",
   "Dist_Name": "Dinajpur Uttar ",
   "State_Name": "West Bengal"}},
 {"type": "Feature",
  "geometry": {"type": "symbol", "coordinates": [88.002, 25.234]},
  "properties": {"Block_Name": "Itahar",
   "Dist_Name": "Dinajpur Uttar ",
   "State_Name": "West Bengal"}}
]}     
